[
  {
    "iata": "NYS",
    "name": "New York Skyports Seaplane Base",
    "city": "New York",
    "country": "United States",
    "lat": 40.73399083,
    "lon": -73.97291638
  },
  {
    "iata": "ICY",
    "name": "Icy Bay",
    "city": "Icy Bay",
    "country": "United States",
    "lat": 59.96900177,
    "lon": -141.662002563
  },
  {
    "iata": "HGZ",
    "name": "Hogatza",
    "city": "Hogatza",
    "country": "United States",
    "lat": 66.2161026,
    "lon": -155.6690063
  },
  {
    "iata": "BYW",
    "name": "Blakely Island",
    "city": "Blakely Island",
    "country": "United States",
    "lat": 48.5789985657,
    "lon": -122.825996399
  },
  {
    "iata": "BDF",
    "name": "Rinkenberger",
    "city": "Bradford",
    "country": "United States",
    "lat": 41.2308998108,
    "lon": -89.6156997681
  },
  {
    "iata": "BCS",
    "name": "Southern Seaplane",
    "city": "Belle Chasse",
    "country": "United States",
    "lat": 29.8661003113,
    "lon": -90.0222015381
  },
  {
    "iata": "DUF",
    "name": "Pine Island Airport",
    "city": "Duck",
    "country": "United States",
    "lat": 36.2535018921,
    "lon": -75.7884979248
  },
  {
    "iata": "FOB",
    "name": "Fort Bragg",
    "city": "Fort Bragg",
    "country": "United States",
    "lat": 39.4743003845,
    "lon": -123.79599762
  },
  {
    "iata": "AFT",
    "name": "Afutara Aerodrome",
    "city": "Afutara",
    "country": "Solomon Islands",
    "lat": -9.1913888889,
    "lon": 160.948611111
  },
  {
    "iata": "RNA",
    "name": "Ulawa Airport",
    "city": "Arona",
    "country": "Solomon Islands",
    "lat": -9.8605435826,
    "lon": 161.979546547
  },
  {
    "iata": "ATD",
    "name": "Atoifi",
    "city": "Atoifi",
    "country": "Solomon Islands",
    "lat": -8.8733301163,
    "lon": 161.0110015869
  },
  {
    "iata": "VEV",
    "name": "Barakoma",
    "city": "Barakoma",
    "country": "Solomon Islands",
    "lat": -7.912779808,
    "lon": 156.7059936523
  },
  {
    "iata": "BPF",
    "name": "Batuna Aerodrome",
    "city": "Batuna",
    "country": "Solomon Islands",
    "lat": -8.5620277778,
    "lon": 158.119305556
  },
  {
    "iata": "GEF",
    "name": "Geva Airstrip",
    "city": "Geva",
    "country": "Solomon Islands",
    "lat": -7.5758299828,
    "lon": 156.5970001221
  },
  {
    "iata": "AKS",
    "name": "Auki Airport",
    "city": "Auki",
    "country": "Solomon Islands",
    "lat": -8.7025699616,
    "lon": 160.682006836
  },
  {
    "iata": "BNY",
    "name": "Bellona",
    "city": "Bellona",
    "country": "Solomon Islands",
    "lat": -11.3022222222,
    "lon": 159.798333333
  },
  {
    "iata": "CHY",
    "name": "Choiseul Bay",
    "city": "Choiseul Bay",
    "country": "Solomon Islands",
    "lat": -6.711944,
    "lon": 156.396111
  },
  {
    "iata": "BAS",
    "name": "Balalae",
    "city": "Balalae",
    "country": "Solomon Islands",
    "lat": -6.990745,
    "lon": 155.886656
  },
  {
    "iata": "FRE",
    "name": "Fera Island",
    "city": "Fera Island",
    "country": "Solomon Islands",
    "lat": -8.1075000763,
    "lon": 159.5769958496
  },
  {
    "iata": "HIR",
    "name": "Henderson Intl",
    "city": "Honiara",
    "country": "Solomon Islands",
    "lat": -9.4280004501,
    "lon": 160.0549926758
  },
  {
    "iata": "MBU",
    "name": "Mbambanakira",
    "city": "Mbambanakira",
    "country": "Solomon Islands",
    "lat": -9.7475004196,
    "lon": 159.8390045166
  },
  {
    "iata": "AVU",
    "name": "Avu Avu",
    "city": "Avu Avu",
    "country": "Solomon Islands",
    "lat": -9.8683333333,
    "lon": 160.410555556
  },
  {
    "iata": "IRA",
    "name": "Kirakira",
    "city": "Kirakira",
    "country": "Solomon Islands",
    "lat": -10.4497003555,
    "lon": 161.8979949951
  },
  {
    "iata": "SCZ",
    "name": "Santa Cruz Is",
    "city": "Santa Cruz Is",
    "country": "Solomon Islands",
    "lat": -10.7202997208,
    "lon": 165.7949981689
  },
  {
    "iata": "MUA",
    "name": "Munda",
    "city": "Munda",
    "country": "Solomon Islands",
    "lat": -8.3279695511,
    "lon": 157.2630004883
  },
  {
    "iata": "GZO",
    "name": "Gizo",
    "city": "Gizo",
    "country": "Solomon Islands",
    "lat": -8.0977802277,
    "lon": 156.863998413
  },
  {
    "iata": "MNY",
    "name": "Mono",
    "city": "Mono",
    "country": "Solomon Islands",
    "lat": -7.4169402122,
    "lon": 155.5650024414
  },
  {
    "iata": "PRS",
    "name": "Parasi",
    "city": "Parasi",
    "country": "Solomon Islands",
    "lat": -9.6416702271,
    "lon": 161.4250030518
  },
  {
    "iata": "RNL",
    "name": "Rennell",
    "city": "Rennell",
    "country": "Solomon Islands",
    "lat": -11.5339002609,
    "lon": 160.06300354
  },
  {
    "iata": "EGM",
    "name": "Sege",
    "city": "Sege",
    "country": "Solomon Islands",
    "lat": -8.5788898468,
    "lon": 157.8760070801
  },
  {
    "iata": "NNB",
    "name": "Santa Ana",
    "city": "Santa Ana",
    "country": "Solomon Islands",
    "lat": -10.847994,
    "lon": 162.454108
  },
  {
    "iata": "RUS",
    "name": "Marau Sound",
    "city": "Marau Sound",
    "country": "Solomon Islands",
    "lat": -9.8616695404,
    "lon": 160.824996948
  },
  {
    "iata": "VAO",
    "name": "Suavanao Airstrip",
    "city": "Suavanao",
    "country": "Solomon Islands",
    "lat": -7.585559845,
    "lon": 158.7310028076
  },
  {
    "iata": "XYA",
    "name": "Yandina",
    "city": "Yandina",
    "country": "Solomon Islands",
    "lat": -9.092816,
    "lon": 159.21841
  },
  {
    "iata": "KGE",
    "name": "Kagau",
    "city": "Kagau",
    "country": "Solomon Islands",
    "lat": -7.3330001831,
    "lon": 157.5829925537
  },
  {
    "iata": "KWS",
    "name": "Kwailabesi Aerodrom",
    "city": "Kwailabesi",
    "country": "Solomon Islands",
    "lat": -8.360508,
    "lon": 160.775127
  },
  {
    "iata": "GTA",
    "name": "Gatokae Aerodrom",
    "city": "Gatokae",
    "country": "Solomon Islands",
    "lat": -8.739167,
    "lon": 158.203056
  },
  {
    "iata": "RIN",
    "name": "Ringi Cove",
    "city": "Ringi Cove",
    "country": "Solomon Islands",
    "lat": -8.1263904572,
    "lon": 157.1430053711
  },
  {
    "iata": "RBV",
    "name": "Ramata",
    "city": "Ramata",
    "country": "Solomon Islands",
    "lat": -8.1680603027,
    "lon": 157.6430053711
  },
  {
    "iata": "CEX",
    "name": "Chena Hot Springs",
    "city": "Chena Hot Springs",
    "country": "United States",
    "lat": 65.0518035889,
    "lon": -146.04699707
  },
  {
    "iata": "HED",
    "name": "Herendeen",
    "city": "Herendeen",
    "country": "United States",
    "lat": 55.801399231,
    "lon": -160.899002075
  },
  {
    "iata": "TWE",
    "name": "Taylor",
    "city": "Taylor",
    "country": "United States",
    "lat": 65.6792984009,
    "lon": -164.798995972
  },
  {
    "iata": "CDL",
    "name": "Candle",
    "city": "Candle",
    "country": "United States",
    "lat": 65.907699585,
    "lon": -161.925994873
  },
  {
    "iata": "BSW",
    "name": "Boswell Bay",
    "city": "Boswell Bay",
    "country": "United States",
    "lat": 60.4230995178,
    "lon": -146.145996094
  },
  {
    "iata": "INU",
    "name": "International",
    "city": "Nauru Island",
    "country": "Nauru",
    "lat": -0.547458,
    "lon": 166.919006
  },
  {
    "iata": "AFR",
    "name": "Afore",
    "city": "Afore",
    "country": "Papua New Guinea",
    "lat": -9.14222,
    "lon": 148.39083
  },
  {
    "iata": "ATP",
    "name": "Airstrip",
    "city": "Aitape",
    "country": "Papua New Guinea",
    "lat": -3.1436111111,
    "lon": 142.346805556
  },
  {
    "iata": "AMU",
    "name": "Amanab",
    "city": "Amanab",
    "country": "Papua New Guinea",
    "lat": -3.586,
    "lon": 141.214333333
  },
  {
    "iata": "ADC",
    "name": "Andakombe",
    "city": "Andakombe",
    "country": "Papua New Guinea",
    "lat": -7.1372222222,
    "lon": 145.744722222
  },
  {
    "iata": "AIE",
    "name": "Aiome",
    "city": "Aiome",
    "country": "Papua New Guinea",
    "lat": -5.145699978,
    "lon": 144.7307003
  },
  {
    "iata": "KPM",
    "name": "Kompiam",
    "city": "Kompiam",
    "country": "Papua New Guinea",
    "lat": -5.3816666667,
    "lon": 143.924722222
  },
  {
    "iata": "AUJ",
    "name": "Ambunti",
    "city": "Ambunti",
    "country": "Papua New Guinea",
    "lat": -4.2156666667,
    "lon": 142.823166667
  },
  {
    "iata": "AWB",
    "name": "Awaba",
    "city": "Awaba",
    "country": "Papua New Guinea",
    "lat": -8.0061101914,
    "lon": 142.748352051
  },
  {
    "iata": "AYU",
    "name": "Aiyura",
    "city": "Aiyura",
    "country": "Papua New Guinea",
    "lat": -6.3380555556,
    "lon": 145.904166667
  },
  {
    "iata": "VMU",
    "name": "Baimuru",
    "city": "Baimuru",
    "country": "Papua New Guinea",
    "lat": -7.4968600273,
    "lon": 144.819900513
  },
  {
    "iata": "BDZ",
    "name": "Baindoung",
    "city": "Baindoung",
    "country": "Papua New Guinea",
    "lat": -6.3472222222,
    "lon": 146.942222222
  },
  {
    "iata": "BUA",
    "name": "Buka",
    "city": "Buka",
    "country": "Papua New Guinea",
    "lat": -5.4223198891,
    "lon": 154.6730041504
  },
  {
    "iata": "BAA",
    "name": "Bialla",
    "city": "Bialla",
    "country": "Papua New Guinea",
    "lat": -5.329445,
    "lon": 151.006128
  },
  {
    "iata": "OPU",
    "name": "Balimo",
    "city": "Balimo",
    "country": "Papua New Guinea",
    "lat": -8.0500001907,
    "lon": 142.932998657
  },
  {
    "iata": "BUL",
    "name": "Bulolo",
    "city": "Bulolo",
    "country": "Papua New Guinea",
    "lat": -7.2162866714,
    "lon": 146.649541855
  },
  {
    "iata": "CGC",
    "name": "Cape Gloucester",
    "city": "Cape Gloucester",
    "country": "Papua New Guinea",
    "lat": -5.455122,
    "lon": 148.423082
  },
  {
    "iata": "CMU",
    "name": "Chimbu",
    "city": "Kundiawa",
    "country": "Papua New Guinea",
    "lat": -6.0242900848,
    "lon": 144.970993042
  },
  {
    "iata": "DAO",
    "name": "Dabo",
    "city": "Dabo",
    "country": "Papua New Guinea",
    "lat": -5.753194,
    "lon": 141.993611
  },
  {
    "iata": "DBP",
    "name": "Debepare",
    "city": "Debepare",
    "country": "Papua New Guinea",
    "lat": -6.308611,
    "lon": 141.905556
  },
  {
    "iata": "DER",
    "name": "Derim",
    "city": "Derim",
    "country": "Papua New Guinea",
    "lat": -6.1447222222,
    "lon": 147.107222222
  },
  {
    "iata": "DAU",
    "name": "Daru",
    "city": "Daru",
    "country": "Papua New Guinea",
    "lat": -9.0867595673,
    "lon": 143.207992554
  },
  {
    "iata": "XYR",
    "name": "Yellow River",
    "city": "Yellow River",
    "country": "Papua New Guinea",
    "lat": -3.883986,
    "lon": 141.792234
  },
  {
    "iata": "FNE",
    "name": "Fane",
    "city": "Fane",
    "country": "Papua New Guinea",
    "lat": -8.5492777778,
    "lon": 147.085833333
  },
  {
    "iata": "FIN",
    "name": "Finschhafen",
    "city": "Finschhafen",
    "country": "Papua New Guinea",
    "lat": -6.621750109,
    "lon": 147.85405
  },
  {
    "iata": "FAQ",
    "name": "Freida River",
    "city": "Freida River",
    "country": "Papua New Guinea",
    "lat": -4.610468,
    "lon": 141.960138
  },
  {
    "iata": "GKA",
    "name": "Goroka",
    "city": "Goroka",
    "country": "Papua New Guinea",
    "lat": -6.0816898346,
    "lon": 145.391998291
  },
  {
    "iata": "GRL",
    "name": "Garasa",
    "city": "Garasa",
    "country": "Papua New Guinea",
    "lat": -7.980713,
    "lon": 147.213461
  },
  {
    "iata": "GAR",
    "name": "Garaina",
    "city": "Garaina",
    "country": "Papua New Guinea",
    "lat": -7.8756250275,
    "lon": 147.141265869
  },
  {
    "iata": "GUR",
    "name": "Gurney",
    "city": "Alotau",
    "country": "Papua New Guinea",
    "lat": -10.3114995956,
    "lon": 150.333999634
  },
  {
    "iata": "GAP",
    "name": "Gusap",
    "city": "Gusap",
    "country": "Papua New Guinea",
    "lat": -6.053196,
    "lon": 145.959047
  },
  {
    "iata": "PNP",
    "name": "Girua",
    "city": "Popondetta",
    "country": "Papua New Guinea",
    "lat": -8.8045396805,
    "lon": 148.309005737
  },
  {
    "iata": "GMI",
    "name": "Gasmata Island",
    "city": "Gasmata Island",
    "country": "Papua New Guinea",
    "lat": -6.2711100578,
    "lon": 150.330993652
  },
  {
    "iata": "GVI",
    "name": "Green River",
    "city": "Green River",
    "country": "Papua New Guinea",
    "lat": -3.9022428989,
    "lon": 141.170516968
  },
  {
    "iata": "HKN",
    "name": "Hoskins",
    "city": "Hoskins",
    "country": "Papua New Guinea",
    "lat": -5.4621701241,
    "lon": 150.4049987793
  },
  {
    "iata": "KIE",
    "name": "Aropa",
    "city": "Kieta",
    "country": "Papua New Guinea",
    "lat": -6.305,
    "lon": 155.727778
  },
  {
    "iata": "LSA",
    "name": "Losuia",
    "city": "Losuia",
    "country": "Papua New Guinea",
    "lat": -8.5058202744,
    "lon": 151.0809936523
  },
  {
    "iata": "KBM",
    "name": "Kabwum",
    "city": "Kabwum",
    "country": "Papua New Guinea",
    "lat": -6.1554722222,
    "lon": 147.191472222
  },
  {
    "iata": "KDR",
    "name": "Kandrian",
    "city": "Kandrian",
    "country": "Papua New Guinea",
    "lat": -6.2659,
    "lon": 149.5581
  },
  {
    "iata": "UNG",
    "name": "Kiunga",
    "city": "Kiunga",
    "country": "Papua New Guinea",
    "lat": -6.1257100105,
    "lon": 141.2819976807
  },
  {
    "iata": "KRI",
    "name": "Kikori",
    "city": "Kikori",
    "country": "Papua New Guinea",
    "lat": -7.4243798256,
    "lon": 144.2500762939
  },
  {
    "iata": "KMA",
    "name": "Kerema",
    "city": "Kerema",
    "country": "Papua New Guinea",
    "lat": -7.9636101723,
    "lon": 145.770996094
  },
  {
    "iata": "KKD",
    "name": "Kokoda",
    "city": "Kokoda",
    "country": "Papua New Guinea",
    "lat": -8.8846788406,
    "lon": 147.730957031
  },
  {
    "iata": "KZF",
    "name": "Kaintiba",
    "city": "Kaintiba",
    "country": "Papua New Guinea",
    "lat": -7.50025,
    "lon": 146.033833333
  },
  {
    "iata": "KUQ",
    "name": "Kuri",
    "city": "Kuri",
    "country": "Papua New Guinea",
    "lat": -7.135083,
    "lon": 143.276111
  },
  {
    "iata": "KVG",
    "name": "Kavieng",
    "city": "Kavieng",
    "country": "Papua New Guinea",
    "lat": -2.5794000626,
    "lon": 150.807998657
  },
  {
    "iata": "KWO",
    "name": "Kawito",
    "city": "Kawito",
    "country": "Papua New Guinea",
    "lat": -7.9770069122,
    "lon": 142.823577881
  },
  {
    "iata": "LNV",
    "name": "Lihir Island",
    "city": "Lihir Island",
    "country": "Papua New Guinea",
    "lat": -3.043610096,
    "lon": 152.628997803
  },
  {
    "iata": "LMY",
    "name": "Lake Murray",
    "city": "Lake Murray",
    "country": "Papua New Guinea",
    "lat": -7.0099201202,
    "lon": 141.494003296
  },
  {
    "iata": "LMI",
    "name": "Lumi",
    "city": "Lumi",
    "country": "Papua New Guinea",
    "lat": -3.4768395113,
    "lon": 142.041292191
  },
  {
    "iata": "MYX",
    "name": "Menyamya",
    "city": "Menyamya",
    "country": "Papua New Guinea",
    "lat": -7.2116666667,
    "lon": 146.019361111
  },
  {
    "iata": "MAG",
    "name": "Madang",
    "city": "Madang",
    "country": "Papua New Guinea",
    "lat": -5.2070798874,
    "lon": 145.789001465
  },
  {
    "iata": "HGU",
    "name": "Kagamuga",
    "city": "Mount Hagen",
    "country": "Papua New Guinea",
    "lat": -5.826789856,
    "lon": 144.296005249
  },
  {
    "iata": "MXK",
    "name": "Mindik",
    "city": "Mindik",
    "country": "Papua New Guinea",
    "lat": -6.4716666667,
    "lon": 147.441138889
  },
  {
    "iata": "GUV",
    "name": "Mougulu",
    "city": "Mougulu",
    "country": "Papua New Guinea",
    "lat": -6.280859,
    "lon": 142.420775
  },
  {
    "iata": "MDU",
    "name": "Mendi",
    "city": "Mendi",
    "country": "Papua New Guinea",
    "lat": -6.1477398872,
    "lon": 143.6569976807
  },
  {
    "iata": "MAS",
    "name": "Momote",
    "city": "Manus Island",
    "country": "Papua New Guinea",
    "lat": -2.0618898869,
    "lon": 147.4239959717
  },
  {
    "iata": "MXH",
    "name": "Moro",
    "city": "Moro",
    "country": "Papua New Guinea",
    "lat": -6.3633298874,
    "lon": 143.238006592
  },
  {
    "iata": "MIS",
    "name": "Misima Island",
    "city": "Misima Island",
    "country": "Papua New Guinea",
    "lat": -10.6892004013,
    "lon": 152.837997437
  },
  {
    "iata": "GBF",
    "name": "Negarbo",
    "city": "Negarbo",
    "country": "Papua New Guinea",
    "lat": -6.567778,
    "lon": 144.703058
  },
  {
    "iata": "MFO",
    "name": "Manguna",
    "city": "Manguna",
    "country": "Egypt",
    "lat": -5.577778,
    "lon": 151.792333
  },
  {
    "iata": "UKU",
    "name": "Nuku",
    "city": "Nuku",
    "country": "Papua New Guinea",
    "lat": -3.676651,
    "lon": 142.484334
  },
  {
    "iata": "LAE",
    "name": "Nadzab",
    "city": "Lae",
    "country": "Papua New Guinea",
    "lat": -6.5698299408,
    "lon": 146.725997925
  },
  {
    "iata": "OGE",
    "name": "Ogeranang",
    "city": "Ogeranang",
    "country": "Papua New Guinea",
    "lat": -6.46675,
    "lon": 147.364166667
  },
  {
    "iata": "OSE",
    "name": "Omora",
    "city": "Omora",
    "country": "Papua New Guinea",
    "lat": -7.8277777778,
    "lon": 147.080638889
  },
  {
    "iata": "PDI",
    "name": "Pindiu",
    "city": "Pindiu",
    "country": "Papua New Guinea",
    "lat": -6.4451388889,
    "lon": 147.515833333
  },
  {
    "iata": "POM",
    "name": "Jackson Fld",
    "city": "Port Moresby",
    "country": "Papua New Guinea",
    "lat": -9.4433803558,
    "lon": 147.2200012207
  },
  {
    "iata": "KRJ",
    "name": "Karawari",
    "city": "Karawari",
    "country": "Papua New Guinea",
    "lat": -4.5966666667,
    "lon": 143.5225
  },
  {
    "iata": "RMN",
    "name": "Rumginae",
    "city": "Rumginae",
    "country": "Papua New Guinea",
    "lat": -5.8972222222,
    "lon": 141.271666667
  },
  {
    "iata": "KMR",
    "name": "Karimui",
    "city": "Karimui",
    "country": "Papua New Guinea",
    "lat": -6.4921,
    "lon": 144.823
  },
  {
    "iata": "SBE",
    "name": "Suabi",
    "city": "Suabi",
    "country": "Papua New Guinea",
    "lat": -6.1044444444,
    "lon": 142.278333333
  },
  {
    "iata": "NIS",
    "name": "Simberi",
    "city": "Simberi Island",
    "country": "Papua New Guinea",
    "lat": -2.6622222222,
    "lon": 151.997777778
  },
  {
    "iata": "SIL",
    "name": "Sila",
    "city": "Sila",
    "country": "Papua New Guinea",
    "lat": -9.0735555556,
    "lon": 148.38925
  },
  {
    "iata": "SIM",
    "name": "Simbai",
    "city": "Simbai",
    "country": "Papua New Guinea",
    "lat": -5.2786111111,
    "lon": 144.544722222
  },
  {
    "iata": "TDS",
    "name": "Sasereme",
    "city": "Sasereme",
    "country": "Papua New Guinea",
    "lat": -7.622778,
    "lon": 142.868889
  },
  {
    "iata": "SKC",
    "name": "Suki",
    "city": "Suki",
    "country": "Papua New Guinea",
    "lat": -8.0466,
    "lon": 141.7222
  },
  {
    "iata": "TIZ",
    "name": "Tari",
    "city": "Tari",
    "country": "Papua New Guinea",
    "lat": -5.8449997902,
    "lon": 142.947998047
  },
  {
    "iata": "TBG",
    "name": "Tabubil",
    "city": "Tabubil",
    "country": "Papua New Guinea",
    "lat": -5.2786102295,
    "lon": 141.2259979248
  },
  {
    "iata": "TFM",
    "name": "Telefomin",
    "city": "Telefomin",
    "country": "Papua New Guinea",
    "lat": -5.1260804642,
    "lon": 141.641921997
  },
  {
    "iata": "TPI",
    "name": "Tapini",
    "city": "Tapini",
    "country": "Papua New Guinea",
    "lat": -8.3566666667,
    "lon": 146.989166667
  },
  {
    "iata": "TAJ",
    "name": "Tadji",
    "city": "Aitape",
    "country": "Papua New Guinea",
    "lat": -3.1981918035,
    "lon": 142.430963516
  },
  {
    "iata": "RAB",
    "name": "Tokua",
    "city": "Rabaul",
    "country": "Papua New Guinea",
    "lat": -4.3404598236,
    "lon": 152.380004883
  },
  {
    "iata": "TKW",
    "name": "Tekin",
    "city": "Tekin",
    "country": "Papua New Guinea",
    "lat": -5.2436666667,
    "lon": 142.165194444
  },
  {
    "iata": "TFI",
    "name": "Tufi",
    "city": "Tufi",
    "country": "Papua New Guinea",
    "lat": -9.0759544373,
    "lon": 149.319839478
  },
  {
    "iata": "VAI",
    "name": "Vanimo",
    "city": "Vanimo",
    "country": "Papua New Guinea",
    "lat": -2.6971700191,
    "lon": 141.3020019531
  },
  {
    "iata": "WAO",
    "name": "Wabo",
    "city": "Wabo",
    "country": "Papua New Guinea",
    "lat": -6.9894444444,
    "lon": 145.075111111
  },
  {
    "iata": "WBM",
    "name": "Wapenamanda",
    "city": "Wapenamanda",
    "country": "Papua New Guinea",
    "lat": -5.6433000565,
    "lon": 143.8950042725
  },
  {
    "iata": "AGL",
    "name": "Wanigela",
    "city": "Wanigela",
    "country": "Papua New Guinea",
    "lat": -9.3375,
    "lon": 149.155555556
  },
  {
    "iata": "WWK",
    "name": "Boram",
    "city": "Wewak",
    "country": "Papua New Guinea",
    "lat": -3.5838301182,
    "lon": 143.669006348
  },
  {
    "iata": "WOA",
    "name": "Wonenara",
    "city": "Wonenara",
    "country": "Papua New Guinea",
    "lat": -6.7968611111,
    "lon": 145.891944444
  },
  {
    "iata": "WSU",
    "name": "Wasu",
    "city": "Wasu",
    "country": "Papua New Guinea",
    "lat": -5.9617094492,
    "lon": 147.19822526
  },
  {
    "iata": "WTP",
    "name": "Woitape",
    "city": "Woitape",
    "country": "Papua New Guinea",
    "lat": -8.5458333333,
    "lon": 147.2525
  },
  {
    "iata": "WUG",
    "name": "Wau",
    "city": "Wau",
    "country": "Papua New Guinea",
    "lat": -7.3455555556,
    "lon": 146.718611111
  },
  {
    "iata": "JEG",
    "name": "Aasiaat",
    "city": "Aasiaat",
    "country": "Greenland",
    "lat": 68.7218017578,
    "lon": -52.7846984863
  },
  {
    "iata": "UAK",
    "name": "Narsarsuaq",
    "city": "Narsarsuaq",
    "country": "Greenland",
    "lat": 61.1604995728,
    "lon": -45.4259986877
  },
  {
    "iata": "CNP",
    "name": "Neerlerit Inaat",
    "city": "Neerlerit Inaat",
    "country": "Greenland",
    "lat": 70.7431030273,
    "lon": -22.6504993439
  },
  {
    "iata": "GOH",
    "name": "Nuuk",
    "city": "Nuuk",
    "country": "Greenland",
    "lat": 64.19090271,
    "lon": -51.6781005859
  },
  {
    "iata": "JAV",
    "name": "Ilulissat",
    "city": "Ilulissat",
    "country": "Greenland",
    "lat": 69.2432022095,
    "lon": -51.0570983887
  },
  {
    "iata": "KUS",
    "name": "Kulusuk",
    "city": "Kulusuk",
    "country": "Greenland",
    "lat": 65.573600769,
    "lon": -37.1236000061
  },
  {
    "iata": "JSU",
    "name": "Heliport",
    "city": "Maniitsoq",
    "country": "Greenland",
    "lat": 65.4124984741,
    "lon": -52.9393997192
  },
  {
    "iata": "JFR",
    "name": "Paamiut",
    "city": "Paamiut",
    "country": "Greenland",
    "lat": 62.0147361755,
    "lon": -49.6709365845
  },
  {
    "iata": "NAQ",
    "name": "Qaanaaq",
    "city": "Qaanaaq",
    "country": "Greenland",
    "lat": 77.4886016846,
    "lon": -69.3887023926
  },
  {
    "iata": "SFJ",
    "name": "Kangerlussuaq",
    "city": "Kangerlussuaq",
    "country": "Greenland",
    "lat": 67.0122218992,
    "lon": -50.7116031647
  },
  {
    "iata": "JHS",
    "name": "Sisimiut",
    "city": "Sisimiut",
    "country": "Greenland",
    "lat": 66.9513015747,
    "lon": -53.7293014526
  },
  {
    "iata": "THU",
    "name": "Pituffik",
    "city": "Pituffik",
    "country": "Greenland",
    "lat": 76.5311965942,
    "lon": -68.7032012939
  },
  {
    "iata": "JUV",
    "name": "Heliport",
    "city": "Upernavik",
    "country": "Greenland",
    "lat": 72.7901992798,
    "lon": -56.1305999756
  },
  {
    "iata": "JQA",
    "name": "Qaarsut",
    "city": "Qaarsut",
    "country": "Greenland",
    "lat": 70.7341995239,
    "lon": -52.6962013245
  },
  {
    "iata": "AEY",
    "name": "Akureyri",
    "city": "Akureyri",
    "country": "Iceland",
    "lat": 65.6600036621,
    "lon": -18.0727005005
  },
  {
    "iata": "BIU",
    "name": "Bildudalur",
    "city": "Bildudalur",
    "country": "Iceland",
    "lat": 65.6412963867,
    "lon": -23.5461997986
  },
  {
    "iata": "BGJ",
    "name": "Borgarfjordur Eystri",
    "city": "Borgarfjordur Eystri",
    "country": "Iceland",
    "lat": 65.5164031982,
    "lon": -13.8050003052
  },
  {
    "iata": "BJD",
    "name": "Bakkafjordur",
    "city": "Bakkafjordur",
    "country": "Iceland",
    "lat": 66.0218963623,
    "lon": -14.8243999481
  },
  {
    "iata": "BLO",
    "name": "Blonduos",
    "city": "Blonduos",
    "country": "Iceland",
    "lat": 65.6449966431,
    "lon": -20.2875003815
  },
  {
    "iata": "BQD",
    "name": "Budardalur Airport",
    "city": "Budardalur",
    "country": "Iceland",
    "lat": 65.075302124,
    "lon": -21.8003005981
  },
  {
    "iata": "BXV",
    "name": "Breiddalsvik",
    "city": "Breiddalsvik",
    "country": "Iceland",
    "lat": 64.7900009155,
    "lon": -14.0228004456
  },
  {
    "iata": "DJU",
    "name": "Djupivogur",
    "city": "Djupivogur",
    "country": "Iceland",
    "lat": 64.644203186,
    "lon": -14.2827997208
  },
  {
    "iata": "EGS",
    "name": "Egilsstadir",
    "city": "Egilsstadir",
    "country": "Iceland",
    "lat": 65.2833023071,
    "lon": -14.4013996124
  },
  {
    "iata": "FAS",
    "name": "Faskrudsfjordur",
    "city": "Faskrudsfjordur",
    "country": "Iceland",
    "lat": 64.9317016602,
    "lon": -14.0606002808
  },
  {
    "iata": "FAG",
    "name": "Fagurholsmyri",
    "city": "Fagurholsmyri",
    "country": "Iceland",
    "lat": 63.8746986389,
    "lon": -16.6410999298
  },
  {
    "iata": "GUU",
    "name": "Grundarfjordur",
    "city": "Grundarfjordur",
    "country": "Iceland",
    "lat": 64.9914016724,
    "lon": -23.2247009277
  },
  {
    "iata": "GJR",
    "name": "Gjogur",
    "city": "Gjogur",
    "country": "Iceland",
    "lat": 65.995300293,
    "lon": -21.3269004822
  },
  {
    "iata": "GRY",
    "name": "Grimsey",
    "city": "Grimsey",
    "country": "Iceland",
    "lat": 66.5458,
    "lon": -18.0173
  },
  {
    "iata": "HVK",
    "name": "Holmavik",
    "city": "Holmavik",
    "country": "Iceland",
    "lat": 65.7046966553,
    "lon": -21.6963996887
  },
  {
    "iata": "HFN",
    "name": "Hornafjordur",
    "city": "Hornafjordur",
    "country": "Iceland",
    "lat": 64.2956008911,
    "lon": -15.2271995544
  },
  {
    "iata": "FLI",
    "name": "Flateyri",
    "city": "Flateyri",
    "country": "Iceland",
    "lat": 66.0141804294,
    "lon": -23.4416913986
  },
  {
    "iata": "HZK",
    "name": "Husavik",
    "city": "Husavik",
    "country": "Iceland",
    "lat": 65.9523010254,
    "lon": -17.4260005951
  },
  {
    "iata": "HVM",
    "name": "Hvammstangi",
    "city": "Hvammstangi",
    "country": "Iceland",
    "lat": 65.2664031982,
    "lon": -20.8469009399
  },
  {
    "iata": "HLO",
    "name": "Ingjaldssandur Airport",
    "city": "Onundarfjordur",
    "country": "Iceland",
    "lat": 66.0500030518,
    "lon": -23.696100235
  },
  {
    "iata": "IFJ",
    "name": "Isafjordur",
    "city": "Isafjordur",
    "country": "Iceland",
    "lat": 66.0580978394,
    "lon": -23.1352996826
  },
  {
    "iata": "KEF",
    "name": "Keflavik International",
    "city": "Reykjavik",
    "country": "Iceland",
    "lat": 63.9850006104,
    "lon": -22.6056003571
  },
  {
    "iata": "OPA",
    "name": "Kopasker",
    "city": "Kopasker",
    "country": "Iceland",
    "lat": 66.310798645,
    "lon": -16.4666996002
  },
  {
    "iata": "SAK",
    "name": "Saudarkrokur",
    "city": "Saudarkrokur",
    "country": "Iceland",
    "lat": 65.7316970825,
    "lon": -19.5727996826
  },
  {
    "iata": "NOR",
    "name": "Nordfjordur",
    "city": "Nordfjordur",
    "country": "Iceland",
    "lat": 65.1318969727,
    "lon": -13.7463998795
  },
  {
    "iata": "OFJ",
    "name": "Olafsfjordur",
    "city": "Olafsfjordur",
    "country": "Iceland",
    "lat": 66.0832977295,
    "lon": -18.6667003632
  },
  {
    "iata": "PFJ",
    "name": "Patreksfjordur",
    "city": "Patreksfjordur",
    "country": "Iceland",
    "lat": 65.5558013916,
    "lon": -23.9650001526
  },
  {
    "iata": "RHA",
    "name": "Reykholar",
    "city": "Reykholar",
    "country": "Iceland",
    "lat": 65.4526290894,
    "lon": -22.2061157227
  },
  {
    "iata": "OLI",
    "name": "Rif",
    "city": "Olafsvik",
    "country": "Iceland",
    "lat": 64.9113998413,
    "lon": -23.8230991364
  },
  {
    "iata": "RFN",
    "name": "Raufarhofn",
    "city": "Raufarhofn",
    "country": "Iceland",
    "lat": 66.4064025879,
    "lon": -15.918299675
  },
  {
    "iata": "RKV",
    "name": "Reykjavik Domestic",
    "city": "Reykjavik",
    "country": "Iceland",
    "lat": 64.1299972534,
    "lon": -21.9405994415
  },
  {
    "iata": "MVA",
    "name": "Reykiahlid",
    "city": "Myvatn",
    "country": "Iceland",
    "lat": 65.6557998657,
    "lon": -16.9181003571
  },
  {
    "iata": "SIJ",
    "name": "Siglufjordur",
    "city": "Siglufjordur",
    "country": "Iceland",
    "lat": 66.1333007813,
    "lon": -18.9167003632
  },
  {
    "iata": "SYK",
    "name": "Stykkisholmur",
    "city": "Stykkisholmur",
    "country": "Iceland",
    "lat": 65.0580978394,
    "lon": -22.7942008972
  },
  {
    "iata": "TEY",
    "name": "Thingeyri",
    "city": "Thingeyri",
    "country": "Iceland",
    "lat": 65.870300293,
    "lon": -23.5599994659
  },
  {
    "iata": "THO",
    "name": "Thorshofn",
    "city": "Thorshofn",
    "country": "Iceland",
    "lat": 66.21849823,
    "lon": -15.3355998993
  },
  {
    "iata": "VEY",
    "name": "Vestmannaeyjar",
    "city": "Vestmannaeyjar",
    "country": "Iceland",
    "lat": 63.4243011475,
    "lon": -20.2789001465
  },
  {
    "iata": "VPN",
    "name": "Vopnafjordur",
    "city": "Vopnafjordur",
    "country": "Iceland",
    "lat": 65.7205963135,
    "lon": -14.8506002426
  },
  {
    "iata": "PRN",
    "name": "Prishtina International Airport",
    "city": "Prishtina",
    "country": "Kosovo",
    "lat": 42.5727996826,
    "lon": 21.0358009338
  },
  {
    "iata": "YZZ",
    "name": "Trail Airport",
    "city": "Trail",
    "country": "Canada",
    "lat": 49.0555992126,
    "lon": -117.60900116
  },
  {
    "iata": "YAA",
    "name": "Anahim Lake",
    "city": "Anahim Lake",
    "country": "Canada",
    "lat": 52.4524993896,
    "lon": -125.3030014038
  },
  {
    "iata": "DGF",
    "name": "Bisbee-douglas International",
    "city": "Douglas",
    "country": "Unites States",
    "lat": 50.1654600485,
    "lon": -120.171273351
  },
  {
    "iata": "JHL",
    "name": "Fort MacKay/Albian Aerodrome",
    "city": "Albian Village",
    "country": "Canada",
    "lat": 57.2238998413,
    "lon": -111.418998718
  },
  {
    "iata": "DUQ",
    "name": "Duncan/Quam",
    "city": "Duncan/Quam",
    "country": "Canada",
    "lat": 48.7545336204,
    "lon": -123.709702492
  },
  {
    "iata": "ZEL",
    "name": "Bella Bella",
    "city": "Bella Bella",
    "country": "Canada",
    "lat": 52.1850013733,
    "lon": -128.1569976807
  },
  {
    "iata": "YBO",
    "name": "Bobquinn Lake",
    "city": "Bobquinn Lake",
    "country": "Canada",
    "lat": 56.9667015076,
    "lon": -130.25
  },
  {
    "iata": "YWM",
    "name": "Williams Harbour",
    "city": "Williams Harbour",
    "country": "Canada",
    "lat": 52.5668983459,
    "lon": -55.7846984863
  },
  {
    "iata": "YSO",
    "name": "Postville",
    "city": "Postville",
    "country": "Canada",
    "lat": 54.9105987549,
    "lon": -59.7867012024
  },
  {
    "iata": "YBI",
    "name": "Black Tickle",
    "city": "Black Tickle",
    "country": "Canada",
    "lat": 53.4693984985,
    "lon": -55.7849998474
  },
  {
    "iata": "YFX",
    "name": "Fox Harbour (St Lewis)",
    "city": "Fox Harbour (St Lewis)",
    "country": "Canada",
    "lat": 52.3727989197,
    "lon": -55.6739006042
  },
  {
    "iata": "YHA",
    "name": "Port Hope Simpson",
    "city": "Port Hope Simpson",
    "country": "Canada",
    "lat": 52.5280990601,
    "lon": -56.2860984802
  },
  {
    "iata": "YRG",
    "name": "Rigolet",
    "city": "Rigolet",
    "country": "Canada",
    "lat": 54.1796989441,
    "lon": -58.4575004578
  },
  {
    "iata": "DVK",
    "name": "Diavik",
    "city": "Diavik",
    "country": "Canada",
    "lat": 64.5113983154,
    "lon": -110.289001465
  },
  {
    "iata": "YCK",
    "name": "Colville Lake",
    "city": "Colville Lake",
    "country": "Canada",
    "lat": 67.0333023071,
    "lon": -126.0830001831
  },
  {
    "iata": "YLE",
    "name": "Wha Ti",
    "city": "Wha Ti/Lac La Martre",
    "country": "Canada",
    "lat": 63.1316986084,
    "lon": -117.2460021973
  },
  {
    "iata": "NML",
    "name": "Fort McMurray / Mildred Lake Airport",
    "city": "Fort McMurray",
    "country": "Canada",
    "lat": 57.0555992126,
    "lon": -111.573997498
  },
  {
    "iata": "ZSP",
    "name": "St Paul",
    "city": "St Paul",
    "country": "Canada",
    "lat": 53.9933013916,
    "lon": -111.379997253
  },
  {
    "iata": "DAS",
    "name": "Great Bear Lake",
    "city": "Great Bear Lake",
    "country": "Canada",
    "lat": 66.7031021118,
    "lon": -119.707000732
  },
  {
    "iata": "YFI",
    "name": "Fort Mackay / Firebag",
    "city": "Suncor Energy Site",
    "country": "Canada",
    "lat": 57.2758333344,
    "lon": -110.976666667
  },
  {
    "iata": "SUR",
    "name": "Summer Beaver",
    "city": "Summer Beaver",
    "country": "Canada",
    "lat": 52.7085990906,
    "lon": -88.5419006348
  },
  {
    "iata": "YAX",
    "name": "Angling Lake",
    "city": "Angling Lake",
    "country": "Canada",
    "lat": 53.8492012024,
    "lon": -89.5793991089
  },
  {
    "iata": "WNN",
    "name": "Wunnummin Lake",
    "city": "Wunnummin Lake",
    "country": "Canada",
    "lat": 52.893901825,
    "lon": -89.2891998291
  },
  {
    "iata": "YNO",
    "name": "North Spirit Lake",
    "city": "North Spirit Lake",
    "country": "Canada",
    "lat": 52.4900016785,
    "lon": -92.9710998535
  },
  {
    "iata": "XBE",
    "name": "Bearskin Lake",
    "city": "Bearskin Lake",
    "country": "Canada",
    "lat": 53.9655990601,
    "lon": -91.0271987915
  },
  {
    "iata": "YPD",
    "name": "Parry Sound",
    "city": "Parry Sound",
    "country": "Canada",
    "lat": 45.2574996948,
    "lon": -79.8296966553
  },
  {
    "iata": "KIF",
    "name": "Kingfisher Lake",
    "city": "Kingfisher Lake",
    "country": "Canada",
    "lat": 53.0125007629,
    "lon": -89.8553009033
  },
  {
    "iata": "YOG",
    "name": "Ogoki",
    "city": "Ogoki",
    "country": "Canada",
    "lat": 51.6585998535,
    "lon": -85.9017028809
  },
  {
    "iata": "YEB",
    "name": "Bar River Airport",
    "city": "Bar River",
    "country": "Canada",
    "lat": 46.42029953,
    "lon": -84.0922012329
  },
  {
    "iata": "YHP",
    "name": "Poplar Hill",
    "city": "Poplar Hill",
    "country": "Canada",
    "lat": 52.1133003235,
    "lon": -94.2555999756
  },
  {
    "iata": "KEW",
    "name": "Keewaywin",
    "city": "Keewaywin",
    "country": "Canada",
    "lat": 52.9911003113,
    "lon": -92.8364028931
  },
  {
    "iata": "YSA",
    "name": "Sable Island",
    "city": "Sable Island",
    "country": "Canada",
    "lat": 43.9303535212,
    "lon": -59.9597740173
  },
  {
    "iata": "YNX",
    "name": "Snap Lake Airport",
    "city": "Snap Lake",
    "country": "Canada",
    "lat": 63.5936012268,
    "lon": -110.90599823
  },
  {
    "iata": "YKU",
    "name": "Chisasibi",
    "city": "Chisasibi",
    "country": "Canada",
    "lat": 53.8055992126,
    "lon": -78.9169006348
  },
  {
    "iata": "ZTB",
    "name": "Tete-a-La Baleine",
    "city": "Tete-a-La Baleine",
    "country": "Canada",
    "lat": 50.6744003296,
    "lon": -59.3835983276
  },
  {
    "iata": "ZKG",
    "name": "Kegaska",
    "city": "Kegaska",
    "country": "Canada",
    "lat": 50.1958007813,
    "lon": -61.2658004761
  },
  {
    "iata": "YAU",
    "name": "Kattiniq/Donaldson",
    "city": "Kattiniq",
    "country": "Canada",
    "lat": 61.6622009277,
    "lon": -73.3214035034
  },
  {
    "iata": "ZLT",
    "name": "La Tabatiere",
    "city": "La Tabatiere",
    "country": "Canada",
    "lat": 50.8307991028,
    "lon": -58.9756011963
  },
  {
    "iata": "YAB",
    "name": "Arctic Bay",
    "city": "Arctic Bay",
    "country": "Canada",
    "lat": 73.0057668174,
    "lon": -85.0425052643
  },
  {
    "iata": "YAC",
    "name": "Cat Lake",
    "city": "Cat Lake",
    "country": "Canada",
    "lat": 51.7271995544,
    "lon": -91.8244018555
  },
  {
    "iata": "YAR",
    "name": "Lagrande 3",
    "city": "Lagrande 3",
    "country": "Canada",
    "lat": 53.5717010498,
    "lon": -76.1964035034
  },
  {
    "iata": "YAG",
    "name": "Municipal",
    "city": "Fort Frances",
    "country": "Canada",
    "lat": 48.6542015076,
    "lon": -93.4396972656
  },
  {
    "iata": "YAH",
    "name": "Lagrande 4",
    "city": "Lagrande 4",
    "country": "Canada",
    "lat": 53.754699707,
    "lon": -73.6753005981
  },
  {
    "iata": "YAL",
    "name": "Alert Bay",
    "city": "Alert Bay",
    "country": "Canada",
    "lat": 50.5821990967,
    "lon": -126.9160003662
  },
  {
    "iata": "YAM",
    "name": "Sault Ste Marie",
    "city": "Sault Ste Marie",
    "country": "Canada",
    "lat": 46.4850006104,
    "lon": -84.5093994141
  },
  {
    "iata": "XKS",
    "name": "Kasabonika",
    "city": "Kasabonika",
    "country": "Canada",
    "lat": 53.5247001648,
    "lon": -88.6427993774
  },
  {
    "iata": "YKG",
    "name": "Kangirsuk",
    "city": "Kangirsuk",
    "country": "Canada",
    "lat": 60.0271987915,
    "lon": -69.9991989136
  },
  {
    "iata": "YAT",
    "name": "Attawapiskat",
    "city": "Attawapiskat",
    "country": "Canada",
    "lat": 52.9275016785,
    "lon": -82.4319000244
  },
  {
    "iata": "YAV",
    "name": "Miners Bay",
    "city": "Miners Bay",
    "country": "Canada",
    "lat": 50.0564002991,
    "lon": -97.0325012207
  },
  {
    "iata": "YAW",
    "name": "Shearwater",
    "city": "Halifax",
    "country": "Canada",
    "lat": 44.637222,
    "lon": -63.502222
  },
  {
    "iata": "YAY",
    "name": "St Anthony",
    "city": "St Anthony",
    "country": "Canada",
    "lat": 51.3918991089,
    "lon": -56.0830993652
  },
  {
    "iata": "YAZ",
    "name": "Tofino Airport",
    "city": "Tofino",
    "country": "Canada",
    "lat": 49.0798255464,
    "lon": -125.775604248
  },
  {
    "iata": "YBA",
    "name": "Banff",
    "city": "Banff",
    "country": "Canada",
    "lat": 51.2073404699,
    "lon": -115.541861057
  },
  {
    "iata": "YBB",
    "name": "Kugaaruk",
    "city": "Kugaaruk",
    "country": "Canada",
    "lat": 68.5344009399,
    "lon": -89.8080978394
  },
  {
    "iata": "YBC",
    "name": "Baie Comeau",
    "city": "Baie Comeau",
    "country": "Canada",
    "lat": 49.1324996948,
    "lon": -68.2043991089
  },
  {
    "iata": "QBC",
    "name": "Bella Coola",
    "city": "Bella Coola",
    "country": "Canada",
    "lat": 52.3875007629,
    "lon": -126.5960006714
  },
  {
    "iata": "YBE",
    "name": "Uranium City",
    "city": "Uranium City",
    "country": "Canada",
    "lat": 59.5614013672,
    "lon": -108.4810028076
  },
  {
    "iata": "YBY",
    "name": "Bonnyville",
    "city": "Bonnyville",
    "country": "Canada",
    "lat": 54.3041992188,
    "lon": -110.7440032959
  },
  {
    "iata": "YBG",
    "name": "Bagotville",
    "city": "Bagotville",
    "country": "Canada",
    "lat": 48.3306007385,
    "lon": -70.9963989258
  },
  {
    "iata": "YBK",
    "name": "Baker Lake",
    "city": "Baker Lake",
    "country": "Canada",
    "lat": 64.2988967896,
    "lon": -96.077796936
  },
  {
    "iata": "YBL",
    "name": "Campbell River",
    "city": "Campbell River",
    "country": "Canada",
    "lat": 49.9508018494,
    "lon": -125.2710037231
  },
  {
    "iata": "XTL",
    "name": "Tadoule Lake",
    "city": "Tadoule Lake",
    "country": "Canada",
    "lat": 58.7061004639,
    "lon": -98.5121994019
  },
  {
    "iata": "YBR",
    "name": "Brandon",
    "city": "Brandon",
    "country": "Canada",
    "lat": 49.9099998474,
    "lon": -99.9518966675
  },
  {
    "iata": "YBT",
    "name": "Brochet",
    "city": "Brochet",
    "country": "Canada",
    "lat": 57.8894004822,
    "lon": -101.6790008545
  },
  {
    "iata": "YBV",
    "name": "Berens River",
    "city": "Berens River",
    "country": "Canada",
    "lat": 52.3588981628,
    "lon": -97.0183029175
  },
  {
    "iata": "YBW",
    "name": "Bedwell Harbor",
    "city": "Bedwell Harbor",
    "country": "Canada",
    "lat": 51.103099823,
    "lon": -114.374000549
  },
  {
    "iata": "YBX",
    "name": "Blanc Sablon",
    "city": "Blanc Sablon",
    "country": "Canada",
    "lat": 51.4435997009,
    "lon": -57.1852989197
  },
  {
    "iata": "YRF",
    "name": "Cartwright",
    "city": "Cartwright",
    "country": "Canada",
    "lat": 53.682800293,
    "lon": -57.0419006348
  },
  {
    "iata": "YCB",
    "name": "Cambridge Bay",
    "city": "Cambridge Bay",
    "country": "Canada",
    "lat": 69.1081008911,
    "lon": -105.138000488
  },
  {
    "iata": "YCC",
    "name": "Regional",
    "city": "Cornwall",
    "country": "Canada",
    "lat": 45.0928001404,
    "lon": -74.5633010864
  },
  {
    "iata": "YCD",
    "name": "Nanaimo Arpt",
    "city": "Nanaimo",
    "country": "Canada",
    "lat": 49.0522994995,
    "lon": -123.8700027466
  },
  {
    "iata": "YCE",
    "name": "Centralia",
    "city": "Centralia",
    "country": "Canada",
    "lat": 43.2855987549,
    "lon": -81.5083007813
  },
  {
    "iata": "YCG",
    "name": "Castlegar",
    "city": "Castlegar",
    "country": "Canada",
    "lat": 49.2963981628,
    "lon": -117.632003784
  },
  {
    "iata": "YCH",
    "name": "Miramichi",
    "city": "Miramichi",
    "country": "Canada",
    "lat": 47.0078010559,
    "lon": -65.4492034912
  },
  {
    "iata": "XCM",
    "name": "Chatham",
    "city": "Chatham",
    "country": "Canada",
    "lat": 42.3064002991,
    "lon": -82.0819015503
  },
  {
    "iata": "YCL",
    "name": "Charlo",
    "city": "Charlo",
    "country": "Canada",
    "lat": 47.9907989502,
    "lon": -66.3302993774
  },
  {
    "iata": "YCN",
    "name": "Cochrane",
    "city": "Cochrane",
    "country": "Canada",
    "lat": 49.1055984497,
    "lon": -81.0136032104
  },
  {
    "iata": "YCO",
    "name": "Kugluktuk",
    "city": "Kugluktuk/Coppermine",
    "country": "Canada",
    "lat": 67.8167037964,
    "lon": -115.143997192
  },
  {
    "iata": "YCQ",
    "name": "Chetwynd",
    "city": "Chetwynd",
    "country": "Canada",
    "lat": 55.6871986389,
    "lon": -121.6269989014
  },
  {
    "iata": "YCR",
    "name": "Cross Lake",
    "city": "Cross Lake",
    "country": "Canada",
    "lat": 54.6105995178,
    "lon": -97.7608032227
  },
  {
    "iata": "YCS",
    "name": "Chesterfield Inlet",
    "city": "Chesterfield Inlet",
    "country": "Canada",
    "lat": 63.3469009399,
    "lon": -90.7311019897
  },
  {
    "iata": "YCT",
    "name": "Coronation",
    "city": "Coronation",
    "country": "Canada",
    "lat": 52.0750007629,
    "lon": -111.4449996948
  },
  {
    "iata": "YCW",
    "name": "Chilliwack Municipal Airport",
    "city": "Chilliwack",
    "country": "Canada",
    "lat": 49.1528015137,
    "lon": -121.9390029907
  },
  {
    "iata": "YCY",
    "name": "Clyde River",
    "city": "Clyde River",
    "country": "Canada",
    "lat": 70.4860992432,
    "lon": -68.5167007446
  },
  {
    "iata": "YCZ",
    "name": "Fairmount Springs",
    "city": "Fairmount Springs",
    "country": "Canada",
    "lat": 50.3302993774,
    "lon": -115.873001099
  },
  {
    "iata": "YDA",
    "name": "Dawson City",
    "city": "Dawson City",
    "country": "Canada",
    "lat": 64.0430984497,
    "lon": -139.1280059814
  },
  {
    "iata": "YDB",
    "name": "Burwash Landings",
    "city": "Burwash Landings",
    "country": "Canada",
    "lat": 61.3711013794,
    "lon": -139.0410003662
  },
  {
    "iata": "YDC",
    "name": "Industrial Airport",
    "city": "Drayton Valley",
    "country": "Canada",
    "lat": 49.4681015015,
    "lon": -120.511001587
  },
  {
    "iata": "YDF",
    "name": "Deer Lake",
    "city": "Deer Lake",
    "country": "Canada",
    "lat": 49.2108001709,
    "lon": -57.3913993835
  },
  {
    "iata": "YDL",
    "name": "Dease Lake",
    "city": "Dease Lake",
    "country": "Canada",
    "lat": 58.4221992493,
    "lon": -130.0319976807
  },
  {
    "iata": "YDM",
    "name": "Ross River Airport",
    "city": "Ross River",
    "country": "Canada",
    "lat": 61.9706001282,
    "lon": -132.4230041504
  },
  {
    "iata": "YDN",
    "name": "Dauphin",
    "city": "Dauphin",
    "country": "Canada",
    "lat": 51.1007995605,
    "lon": -100.0520019531
  },
  {
    "iata": "YDO",
    "name": "St Methode",
    "city": "Dolbeau",
    "country": "Canada",
    "lat": 48.7784996033,
    "lon": -72.375
  },
  {
    "iata": "YDP",
    "name": "Nain",
    "city": "Nain",
    "country": "Canada",
    "lat": 56.5491981506,
    "lon": -61.6803016663
  },
  {
    "iata": "YDQ",
    "name": "Dawson Creek",
    "city": "Dawson Creek",
    "country": "Canada",
    "lat": 55.7422981262,
    "lon": -120.1829986572
  },
  {
    "iata": "YEE",
    "name": "Huronia Airport",
    "city": "Midland",
    "country": "Canada",
    "lat": 44.6833000183,
    "lon": -79.9282989502
  },
  {
    "iata": "YEG",
    "name": "International",
    "city": "Edmonton",
    "country": "Canada",
    "lat": 53.3097000122,
    "lon": -113.580001831
  },
  {
    "iata": "YEK",
    "name": "Arviat",
    "city": "Arviat",
    "country": "Canada",
    "lat": 61.0942001343,
    "lon": -94.0708007812
  },
  {
    "iata": "YEL",
    "name": "Elliot Lake",
    "city": "Elliot Lake",
    "country": "Canada",
    "lat": 46.351398468,
    "lon": -82.5614013672
  },
  {
    "iata": "YEM",
    "name": "East Manitoulin",
    "city": "Manitowaning",
    "country": "Canada",
    "lat": 45.8428001404,
    "lon": -81.8581008911
  },
  {
    "iata": "YEN",
    "name": "Estevan",
    "city": "Estevan",
    "country": "Canada",
    "lat": 49.2103004456,
    "lon": -102.966003418
  },
  {
    "iata": "YER",
    "name": "Fort Severn",
    "city": "Fort Severn",
    "country": "Canada",
    "lat": 56.018901825,
    "lon": -87.6761016846
  },
  {
    "iata": "YET",
    "name": "Edson",
    "city": "Edson",
    "country": "Canada",
    "lat": 53.5788993835,
    "lon": -116.464996338
  },
  {
    "iata": "YEU",
    "name": "Eureka",
    "city": "Eureka",
    "country": "Canada",
    "lat": 79.9946975708,
    "lon": -85.814201355
  },
  {
    "iata": "YEV",
    "name": "Inuvik/Mike Zubko",
    "city": "Inuvik",
    "country": "Canada",
    "lat": 68.3041992188,
    "lon": -133.483001709
  },
  {
    "iata": "YEY",
    "name": "Amos",
    "city": "Amos",
    "country": "Canada",
    "lat": 48.5638999939,
    "lon": -78.2497024536
  },
  {
    "iata": "YFA",
    "name": "Fort Albany",
    "city": "Fort Albany",
    "country": "Canada",
    "lat": 52.2014007568,
    "lon": -81.6968994141
  },
  {
    "iata": "YFB",
    "name": "Iqaluit",
    "city": "Iqaluit",
    "country": "Canada",
    "lat": 63.756401062,
    "lon": -68.5558013916
  },
  {
    "iata": "YFC",
    "name": "Fredericton",
    "city": "Fredericton",
    "country": "Canada",
    "lat": 45.8689002991,
    "lon": -66.5372009277
  },
  {
    "iata": "YFD",
    "name": "Brantford Municipal Airport",
    "city": "Brantford",
    "country": "Canada",
    "lat": 43.131401062,
    "lon": -80.3424987793
  },
  {
    "iata": "YFE",
    "name": "Forestville",
    "city": "Forestville",
    "country": "Canada",
    "lat": 48.7461013794,
    "lon": -69.0971984863
  },
  {
    "iata": "YFH",
    "name": "Fort Hope",
    "city": "Fort Hope",
    "country": "Canada",
    "lat": 51.5619010925,
    "lon": -87.9077987671
  },
  {
    "iata": "YTM",
    "name": "La Macaza",
    "city": "Mont Tremblant",
    "country": "Canada",
    "lat": 46.4094009399,
    "lon": -74.7799987793
  },
  {
    "iata": "YFO",
    "name": "Flin Flon",
    "city": "Flin Flon",
    "country": "Canada",
    "lat": 54.6781005859,
    "lon": -101.6819992065
  },
  {
    "iata": "YFR",
    "name": "Fort Resolution",
    "city": "Fort Resolution",
    "country": "Canada",
    "lat": 61.1808013916,
    "lon": -113.690002441
  },
  {
    "iata": "YFS",
    "name": "Fort Simpson",
    "city": "Fort Simpson",
    "country": "Canada",
    "lat": 61.7602005005,
    "lon": -121.2369995117
  },
  {
    "iata": "YMN",
    "name": "Makkovik",
    "city": "Makkovik",
    "country": "Canada",
    "lat": 55.0769004822,
    "lon": -59.1864013672
  },
  {
    "iata": "YGB",
    "name": "Gillies Bay",
    "city": "Gillies Bay",
    "country": "Canada",
    "lat": 49.6941986084,
    "lon": -124.5179977417
  },
  {
    "iata": "YGD",
    "name": "Goderich Airport",
    "city": "Goderich",
    "country": "Canada",
    "lat": 43.7668991089,
    "lon": -81.7106018066
  },
  {
    "iata": "YGE",
    "name": "Gorge Harbor",
    "city": "Gorge Harbor",
    "country": "Canada",
    "lat": 51.2991981506,
    "lon": -116.9820022583
  },
  {
    "iata": "YGH",
    "name": "Fort Good Hope",
    "city": "Fort Good Hope",
    "country": "Canada",
    "lat": 66.2407989502,
    "lon": -128.6510009766
  },
  {
    "iata": "YGK",
    "name": "Kingston",
    "city": "Kingston",
    "country": "Canada",
    "lat": 44.2252998352,
    "lon": -76.5969009399
  },
  {
    "iata": "YGL",
    "name": "La Grande",
    "city": "La Grande",
    "country": "Canada",
    "lat": 53.6253013611,
    "lon": -77.7042007446
  },
  {
    "iata": "YGM",
    "name": "Gimli",
    "city": "Gimli",
    "country": "Canada",
    "lat": 50.6281013489,
    "lon": -97.043296814
  },
  {
    "iata": "YGO",
    "name": "Gods Narrows",
    "city": "Gods Narrows",
    "country": "Canada",
    "lat": 54.5588989258,
    "lon": -94.4914016724
  },
  {
    "iata": "YGP",
    "name": "Gaspe (Michel-Pouliot) Airport",
    "city": "Gaspe",
    "country": "Canada",
    "lat": 48.7752990723,
    "lon": -64.4785995483
  },
  {
    "iata": "YGQ",
    "name": "Geraldton",
    "city": "Geraldton",
    "country": "Canada",
    "lat": 49.778301239,
    "lon": -86.9393997192
  },
  {
    "iata": "YGR",
    "name": "Iles De La Madeleine",
    "city": "Iles De La Madeleine",
    "country": "Canada",
    "lat": 47.4247016907,
    "lon": -61.7780990601
  },
  {
    "iata": "YGT",
    "name": "Igloolik",
    "city": "Igloolik",
    "country": "Canada",
    "lat": 69.3647003174,
    "lon": -81.8161010742
  },
  {
    "iata": "YGV",
    "name": "Havre St Pierre",
    "city": "Havre St Pierre",
    "country": "Canada",
    "lat": 50.2818984985,
    "lon": -63.6114006042
  },
  {
    "iata": "YGW",
    "name": "Kuujjuarapik",
    "city": "Kuujjuarapik",
    "country": "Canada",
    "lat": 55.2818984985,
    "lon": -77.765296936
  },
  {
    "iata": "YGX",
    "name": "Gillam",
    "city": "Gillam",
    "country": "Canada",
    "lat": 56.3574981689,
    "lon": -94.7106018066
  },
  {
    "iata": "YGZ",
    "name": "Grise Fiord",
    "city": "Grise Fiord",
    "country": "Canada",
    "lat": 76.4261016846,
    "lon": -82.9092025757
  },
  {
    "iata": "YQC",
    "name": "Quaqtaq",
    "city": "Quaqtaq",
    "country": "Canada",
    "lat": 61.0463981628,
    "lon": -69.6177978516
  },
  {
    "iata": "YHB",
    "name": "Hudson Bay",
    "city": "Hudson Bay",
    "country": "Canada",
    "lat": 52.8166999817,
    "lon": -102.3109970093
  },
  {
    "iata": "CXH",
    "name": "Coal Harbour",
    "city": "Vancouver",
    "country": "Canada",
    "lat": 49.2945,
    "lon": -123.111333
  },
  {
    "iata": "YHD",
    "name": "Municipal",
    "city": "Dryden",
    "country": "Canada",
    "lat": 49.8316993713,
    "lon": -92.7442016602
  },
  {
    "iata": "YHE",
    "name": "Hope",
    "city": "Hope",
    "country": "Canada",
    "lat": 49.3683013916,
    "lon": -121.498001099
  },
  {
    "iata": "YHF",
    "name": "Hearst",
    "city": "Hearst",
    "country": "Canada",
    "lat": 49.7141990662,
    "lon": -83.6860961914
  },
  {
    "iata": "YNS",
    "name": "Nemiscau",
    "city": "Nemiscau",
    "country": "Canada",
    "lat": 51.6911010742,
    "lon": -76.135597229
  },
  {
    "iata": "YHI",
    "name": "Holman",
    "city": "Holman",
    "country": "Canada",
    "lat": 70.762802124,
    "lon": -117.8059997559
  },
  {
    "iata": "YHK",
    "name": "Gjoa Haven",
    "city": "Gjoa Haven",
    "country": "Canada",
    "lat": 68.635597229,
    "lon": -95.8497009277
  },
  {
    "iata": "YHM",
    "name": "Hamilton",
    "city": "Hamilton",
    "country": "Canada",
    "lat": 43.1735992432,
    "lon": -79.9349975586
  },
  {
    "iata": "YHN",
    "name": "Hornepayne",
    "city": "Hornepayne",
    "country": "Canada",
    "lat": 49.1930999756,
    "lon": -84.7589035034
  },
  {
    "iata": "YHO",
    "name": "Hopedale",
    "city": "Hopedale",
    "country": "Canada",
    "lat": 55.448299408,
    "lon": -60.2285995483
  },
  {
    "iata": "YHR",
    "name": "Chevery",
    "city": "Chevery",
    "country": "Canada",
    "lat": 50.4688987732,
    "lon": -59.6366996765
  },
  {
    "iata": "YHT",
    "name": "Haines Junction",
    "city": "Haines Junction",
    "country": "Canada",
    "lat": 60.7891998291,
    "lon": -137.546005249
  },
  {
    "iata": "YHU",
    "name": "St Hubert",
    "city": "Montreal",
    "country": "Canada",
    "lat": 45.5175018311,
    "lon": -73.4169006348
  },
  {
    "iata": "YHY",
    "name": "Hay River",
    "city": "Hay River",
    "country": "Canada",
    "lat": 60.8396987915,
    "lon": -115.782997131
  },
  {
    "iata": "YHZ",
    "name": "Halifax International",
    "city": "Halifax",
    "country": "Canada",
    "lat": 44.8807983398,
    "lon": -63.5085983276
  },
  {
    "iata": "YIB",
    "name": "Atikokan",
    "city": "Atikokan",
    "country": "Canada",
    "lat": 48.7738990784,
    "lon": -91.6386032104
  },
  {
    "iata": "YDG",
    "name": "Digby",
    "city": "Digby",
    "country": "Canada",
    "lat": 44.5458450365,
    "lon": -65.7854247093
  },
  {
    "iata": "YIF",
    "name": "Pakuashipi",
    "city": "Pakuashipi",
    "country": "Canada",
    "lat": 51.2117004395,
    "lon": -58.6582984924
  },
  {
    "iata": "YIK",
    "name": "Ivujivik",
    "city": "Ivujivik",
    "country": "Canada",
    "lat": 62.417301178,
    "lon": -77.9253005981
  },
  {
    "iata": "YIO",
    "name": "Pond Inlet",
    "city": "Pond Inlet",
    "country": "Canada",
    "lat": 72.6832962036,
    "lon": -77.9666976929
  },
  {
    "iata": "YIV",
    "name": "Island Lk/Garden Hill",
    "city": "Island Lk/Garden Hill",
    "country": "Canada",
    "lat": 53.8572006226,
    "lon": -94.6536026001
  },
  {
    "iata": "YJA",
    "name": "Jasper Airport",
    "city": "Jasper",
    "country": "Canada",
    "lat": 52.9967002869,
    "lon": -118.0589981079
  },
  {
    "iata": "YJF",
    "name": "Fort Liard",
    "city": "Fort Liard",
    "country": "Canada",
    "lat": 60.2358016968,
    "lon": -123.46900177
  },
  {
    "iata": "YJM",
    "name": "Fort St James Airport",
    "city": "Fort St. James",
    "country": "Canada",
    "lat": 54.3972015381,
    "lon": -124.2630004883
  },
  {
    "iata": "YJN",
    "name": "St Jean",
    "city": "St Jean",
    "country": "Canada",
    "lat": 45.2943992615,
    "lon": -73.2810974121
  },
  {
    "iata": "YJT",
    "name": "Stephenville",
    "city": "Stephenville",
    "country": "Canada",
    "lat": 48.5442008972,
    "lon": -58.5499992371
  },
  {
    "iata": "YKA",
    "name": "Kamloops",
    "city": "Kamloops",
    "country": "Canada",
    "lat": 50.7022018433,
    "lon": -120.4440002441
  },
  {
    "iata": "YKC",
    "name": "Collins Bay",
    "city": "Collins Bay",
    "country": "Canada",
    "lat": 58.2360992432,
    "lon": -103.6780014038
  },
  {
    "iata": "LAK",
    "name": "Aklavik",
    "city": "Aklavik",
    "country": "Canada",
    "lat": 68.2232971191,
    "lon": -135.0059967041
  },
  {
    "iata": "YKF",
    "name": "Kitchener-Waterloo Reg",
    "city": "Kitchener/Waterloo",
    "country": "Canada",
    "lat": 43.4608001709,
    "lon": -80.3786010742
  },
  {
    "iata": "YWB",
    "name": "Kangiqsujuaq",
    "city": "Kangiqsujuaq",
    "country": "Canada",
    "lat": 61.5886001587,
    "lon": -71.929397583
  },
  {
    "iata": "YKJ",
    "name": "Key Lake",
    "city": "Key Lake",
    "country": "Canada",
    "lat": 57.2560997009,
    "lon": -105.6179962158
  },
  {
    "iata": "YKL",
    "name": "Schefferville",
    "city": "Schefferville",
    "country": "Canada",
    "lat": 54.8053016663,
    "lon": -66.8052978516
  },
  {
    "iata": "AKV",
    "name": "Akulivik",
    "city": "Akulivik",
    "country": "Canada",
    "lat": 60.8185997009,
    "lon": -78.1485977173
  },
  {
    "iata": "YKQ",
    "name": "Waskaganish",
    "city": "Waskaganish",
    "country": "Canada",
    "lat": 51.4733009338,
    "lon": -78.7583007813
  },
  {
    "iata": "YKX",
    "name": "Kirkland Lake",
    "city": "Kirkland Lake",
    "country": "Canada",
    "lat": 48.2103004456,
    "lon": -79.9813995361
  },
  {
    "iata": "YKY",
    "name": "Kindersley",
    "city": "Kindersley",
    "country": "Canada",
    "lat": 51.5175018311,
    "lon": -109.180999756
  },
  {
    "iata": "YKZ",
    "name": "Buttonville Municipal",
    "city": "Toronto",
    "country": "Canada",
    "lat": 43.8622016907,
    "lon": -79.3700027466
  },
  {
    "iata": "YPJ",
    "name": "Aupaluk",
    "city": "Aupaluk",
    "country": "Canada",
    "lat": 59.2966995239,
    "lon": -69.5997009277
  },
  {
    "iata": "YLB",
    "name": "Lac Biche",
    "city": "Lac Biche",
    "country": "Canada",
    "lat": 54.7703018188,
    "lon": -112.0319976807
  },
  {
    "iata": "YLC",
    "name": "Kimmirut",
    "city": "Kimmirut/Lake Harbour",
    "country": "Canada",
    "lat": 62.8499984741,
    "lon": -69.8833007812
  },
  {
    "iata": "YLD",
    "name": "Chapleau",
    "city": "Chapleau",
    "country": "Canada",
    "lat": 47.8199996948,
    "lon": -83.3467025757
  },
  {
    "iata": "YLH",
    "name": "Lansdowne House",
    "city": "Lansdowne House",
    "country": "Canada",
    "lat": 52.1955986023,
    "lon": -87.9341964722
  },
  {
    "iata": "YLJ",
    "name": "Meadow Lake",
    "city": "Meadow Lake",
    "country": "Canada",
    "lat": 54.1253013611,
    "lon": -108.5230026245
  },
  {
    "iata": "YSG",
    "name": "Lutselke",
    "city": "Lutselke/Snowdrift",
    "country": "Canada",
    "lat": 62.4183006287,
    "lon": -110.6819992065
  },
  {
    "iata": "YLL",
    "name": "Lloydminster",
    "city": "Lloydminster",
    "country": "Canada",
    "lat": 53.3092002869,
    "lon": -110.0729980469
  },
  {
    "iata": "YLQ",
    "name": "La Tuque",
    "city": "La Tuque",
    "country": "Canada",
    "lat": 47.4096984863,
    "lon": -72.7889022827
  },
  {
    "iata": "YLR",
    "name": "Leaf Rapids",
    "city": "Leaf Rapids",
    "country": "Canada",
    "lat": 56.5133018494,
    "lon": -99.9852981567
  },
  {
    "iata": "YLK",
    "name": "Lake Simcoe Regional Airport",
    "city": "Barrie-Orillia",
    "country": "Canada",
    "lat": 44.4852981567,
    "lon": -79.5556030273
  },
  {
    "iata": "YLT",
    "name": "Alert",
    "city": "Alert",
    "country": "Canada",
    "lat": 82.5177993774,
    "lon": -62.2806015015
  },
  {
    "iata": "XGR",
    "name": "Kangiqsualujjuaq",
    "city": "Kangiqsualujjuaq",
    "country": "Canada",
    "lat": 58.7113990784,
    "lon": -65.9927978516
  },
  {
    "iata": "YLW",
    "name": "Kelowna Airport",
    "city": "Kelowna",
    "country": "Canada",
    "lat": 49.9561004639,
    "lon": -119.3779983521
  },
  {
    "iata": "YMA",
    "name": "Mayo",
    "city": "Mayo",
    "country": "Canada",
    "lat": 63.6164016724,
    "lon": -135.8679962158
  },
  {
    "iata": "YME",
    "name": "Matane",
    "city": "Matane",
    "country": "Canada",
    "lat": 48.8568992615,
    "lon": -67.4533004761
  },
  {
    "iata": "YMG",
    "name": "Manitouwadge",
    "city": "Manitouwadge",
    "country": "Canada",
    "lat": 49.0839004517,
    "lon": -85.8606033325
  },
  {
    "iata": "YMH",
    "name": "Mary's Harbour Airport",
    "city": "Mary's Harbour",
    "country": "Canada",
    "lat": 52.3027992249,
    "lon": -55.8471984863
  },
  {
    "iata": "YMJ",
    "name": "Moose Jaw / Air Vice Marshal C. M. Mcewen Airport",
    "city": "Moose Jaw",
    "country": "Canada",
    "lat": 50.3302993774,
    "lon": -105.5589981079
  },
  {
    "iata": "YML",
    "name": "Charlevoix",
    "city": "Murray Bay",
    "country": "Canada",
    "lat": 47.5974998474,
    "lon": -70.2238998413
  },
  {
    "iata": "YMM",
    "name": "Fort Mcmurray",
    "city": "Fort Mcmurray",
    "country": "Canada",
    "lat": 56.653301239,
    "lon": -111.222000122
  },
  {
    "iata": "YMO",
    "name": "Moosonee",
    "city": "Moosonee",
    "country": "Canada",
    "lat": 51.2910995483,
    "lon": -80.6078033447
  },
  {
    "iata": "YMT",
    "name": "Chibougamau",
    "city": "Chibougamau",
    "country": "Canada",
    "lat": 49.771900177,
    "lon": -74.5280990601
  },
  {
    "iata": "YUD",
    "name": "Umiujaq",
    "city": "Umiujaq",
    "country": "Canada",
    "lat": 56.5360984802,
    "lon": -76.5183029175
  },
  {
    "iata": "YMW",
    "name": "Maniwaki",
    "city": "Maniwaki",
    "country": "Canada",
    "lat": 46.2728004456,
    "lon": -75.9906005859
  },
  {
    "iata": "YMX",
    "name": "Mirabel",
    "city": "Montreal",
    "country": "Canada",
    "lat": 45.6795005798,
    "lon": -74.0386962891
  },
  {
    "iata": "YNA",
    "name": "Natashquan",
    "city": "Natashquan",
    "country": "Canada",
    "lat": 50.1899986267,
    "lon": -61.7891998291
  },
  {
    "iata": "YNC",
    "name": "Wemindji",
    "city": "Wemindji",
    "country": "Canada",
    "lat": 53.0106010437,
    "lon": -78.8311004639
  },
  {
    "iata": "YND",
    "name": "Executive Gatineau-Ottawa",
    "city": "Ottawa",
    "country": "Canada",
    "lat": 45.5217018127,
    "lon": -75.5635986328
  },
  {
    "iata": "YNE",
    "name": "Norway House",
    "city": "Norway House",
    "country": "Canada",
    "lat": 53.9583015442,
    "lon": -97.8442001343
  },
  {
    "iata": "YNH",
    "name": "Hudsons Hope Airport",
    "city": "Hudson's Hope",
    "country": "Canada",
    "lat": 56.0355987549,
    "lon": -121.9759979248
  },
  {
    "iata": "YLY",
    "name": "Langley Regional",
    "city": "Langley",
    "country": "Canada",
    "lat": 49.1007995605,
    "lon": -122.6309967041
  },
  {
    "iata": "YNL",
    "name": "Points North Landing",
    "city": "Points North Landing",
    "country": "Canada",
    "lat": 58.2766990662,
    "lon": -104.0820007324
  },
  {
    "iata": "YNM",
    "name": "Matagami",
    "city": "Matagami",
    "country": "Canada",
    "lat": 49.7616996765,
    "lon": -77.8028030396
  },
  {
    "iata": "YNN",
    "name": "Yandi",
    "city": "Yandicoogina",
    "country": "Australia",
    "lat": 59.4874992371,
    "lon": -97.7802963257
  },
  {
    "iata": "HZP",
    "name": "Fort Mackay / Horizon Airport",
    "city": "Fort Mackay",
    "country": "Canada",
    "lat": 57.3816986084,
    "lon": -111.700996399
  },
  {
    "iata": "YOA",
    "name": "Ekati",
    "city": "Ekati",
    "country": "Canada",
    "lat": 64.6988983154,
    "lon": -110.614997864
  },
  {
    "iata": "YOC",
    "name": "Old Crow",
    "city": "Old Crow",
    "country": "Canada",
    "lat": 67.570602417,
    "lon": -139.8390045166
  },
  {
    "iata": "YOD",
    "name": "Cold Lake",
    "city": "Cold Lake",
    "country": "Canada",
    "lat": 54.4049987793,
    "lon": -110.2789993286
  },
  {
    "iata": "YOH",
    "name": "Oxford House",
    "city": "Oxford House",
    "country": "Canada",
    "lat": 54.9333000183,
    "lon": -95.2789001465
  },
  {
    "iata": "YOJ",
    "name": "Footner Lake",
    "city": "High Level",
    "country": "Canada",
    "lat": 58.6213989258,
    "lon": -117.1650009155
  },
  {
    "iata": "YOO",
    "name": "Oshawa",
    "city": "Oshawa",
    "country": "Canada",
    "lat": 43.9227981567,
    "lon": -78.8949966431
  },
  {
    "iata": "YOP",
    "name": "Rainbow Lake",
    "city": "Rainbow Lake",
    "country": "Canada",
    "lat": 58.4914016724,
    "lon": -119.4079971313
  },
  {
    "iata": "YOS",
    "name": "Billy Bishop Regional",
    "city": "Owen Sound",
    "country": "Canada",
    "lat": 44.5903015137,
    "lon": -80.8375015259
  },
  {
    "iata": "YOW",
    "name": "Ottawa International",
    "city": "Ottawa",
    "country": "Canada",
    "lat": 45.3224983215,
    "lon": -75.6691970825
  },
  {
    "iata": "YPA",
    "name": "Prince Albert",
    "city": "Prince Albert",
    "country": "Canada",
    "lat": 53.2141990662,
    "lon": -105.672996521
  },
  {
    "iata": "YPC",
    "name": "Paulatuk",
    "city": "Paulatuk",
    "country": "Canada",
    "lat": 69.3608381154,
    "lon": -124.075469971
  },
  {
    "iata": "YPS",
    "name": "Port Hawkesbury",
    "city": "Port Hawkesbury",
    "country": "Canada",
    "lat": 45.6567001343,
    "lon": -61.3680992126
  },
  {
    "iata": "YPE",
    "name": "Peace River",
    "city": "Peace River",
    "country": "Canada",
    "lat": 56.2268981934,
    "lon": -117.4469985962
  },
  {
    "iata": "YPG",
    "name": "Portage La Prairie",
    "city": "Portage La Prairie",
    "country": "Canada",
    "lat": 49.9030990601,
    "lon": -98.2739028931
  },
  {
    "iata": "YPH",
    "name": "Inukjuak",
    "city": "Inukjuak",
    "country": "Canada",
    "lat": 58.4719009399,
    "lon": -78.0768966675
  },
  {
    "iata": "YPL",
    "name": "Pickle Lake",
    "city": "Pickle Lake",
    "country": "Canada",
    "lat": 51.4463996887,
    "lon": -90.2142028809
  },
  {
    "iata": "YPM",
    "name": "Pikangikum",
    "city": "Pikangikum",
    "country": "Canada",
    "lat": 51.8196983337,
    "lon": -93.9732971191
  },
  {
    "iata": "YPN",
    "name": "Port Menier",
    "city": "Port Menier",
    "country": "Canada",
    "lat": 49.8363990784,
    "lon": -64.2885971069
  },
  {
    "iata": "YPO",
    "name": "Peawanuck",
    "city": "Peawanuck",
    "country": "Canada",
    "lat": 54.9880981445,
    "lon": -85.4432983398
  },
  {
    "iata": "YPQ",
    "name": "Peterborough",
    "city": "Peterborough",
    "country": "Canada",
    "lat": 44.2299995422,
    "lon": -78.3632965088
  },
  {
    "iata": "YPR",
    "name": "Digby Island",
    "city": "Prince Rupert",
    "country": "Canada",
    "lat": 54.2860984802,
    "lon": -130.4450073242
  },
  {
    "iata": "YPW",
    "name": "Powell River",
    "city": "Powell River",
    "country": "Canada",
    "lat": 49.8342018127,
    "lon": -124.5
  },
  {
    "iata": "YPX",
    "name": "Puvirnituq",
    "city": "Povungnituk",
    "country": "Canada",
    "lat": 60.0505981445,
    "lon": -77.2869033813
  },
  {
    "iata": "YPY",
    "name": "Fort Chipewyan",
    "city": "Fort Chipewyan",
    "country": "Canada",
    "lat": 58.76720047,
    "lon": -111.1169967651
  },
  {
    "iata": "YPZ",
    "name": "Burns Lake",
    "city": "Burns Lake",
    "country": "Canada",
    "lat": 54.3763999939,
    "lon": -125.9509963989
  },
  {
    "iata": "YQA",
    "name": "Muskoka",
    "city": "Muskoka",
    "country": "Canada",
    "lat": 44.9747009277,
    "lon": -79.3032989502
  },
  {
    "iata": "YQB",
    "name": "Québec",
    "city": "Québec City",
    "country": "Canada",
    "lat": 46.7910995483,
    "lon": -71.3933029175
  },
  {
    "iata": "YQD",
    "name": "The Pas",
    "city": "The Pas",
    "country": "Canada",
    "lat": 53.9714012146,
    "lon": -101.091003418
  },
  {
    "iata": "YQF",
    "name": "Red Deer",
    "city": "Red Deer",
    "country": "Canada",
    "lat": 52.1822013855,
    "lon": -113.8939971924
  },
  {
    "iata": "YQG",
    "name": "Windsor",
    "city": "Windsor",
    "country": "Canada",
    "lat": 42.2756004333,
    "lon": -82.9555969238
  },
  {
    "iata": "YQH",
    "name": "Watson Lake",
    "city": "Watson Lake",
    "country": "Canada",
    "lat": 60.1164016724,
    "lon": -128.8220062256
  },
  {
    "iata": "YQI",
    "name": "Yarmouth",
    "city": "Yarmouth",
    "country": "Canada",
    "lat": 43.8269004822,
    "lon": -66.0880966187
  },
  {
    "iata": "YQK",
    "name": "Kenora",
    "city": "Kenora",
    "country": "Canada",
    "lat": 49.7882995605,
    "lon": -94.3630981445
  },
  {
    "iata": "YQL",
    "name": "Lethbridge",
    "city": "Lethbridge",
    "country": "Canada",
    "lat": 49.6302986145,
    "lon": -112.800003052
  },
  {
    "iata": "YQM",
    "name": "Greater Moncton International Airport",
    "city": "Moncton",
    "country": "Canada",
    "lat": 46.1122016907,
    "lon": -64.6785964966
  },
  {
    "iata": "YQN",
    "name": "Nakina",
    "city": "Nakina",
    "country": "Canada",
    "lat": 50.182800293,
    "lon": -86.6964035034
  },
  {
    "iata": "YQQ",
    "name": "Comox",
    "city": "Comox",
    "country": "Canada",
    "lat": 49.7108001709,
    "lon": -124.8870010376
  },
  {
    "iata": "YQR",
    "name": "Regina",
    "city": "Regina, Saskatchewan",
    "country": "Canada",
    "lat": 50.4319000244,
    "lon": -104.6660003662
  },
  {
    "iata": "YQS",
    "name": "Pembroke Area Mncpl",
    "city": "St Thomas",
    "country": "Canada",
    "lat": 42.7700004578,
    "lon": -81.1108016968
  },
  {
    "iata": "YQT",
    "name": "Thunder Bay",
    "city": "Thunder Bay",
    "country": "Canada",
    "lat": 48.3718986511,
    "lon": -89.3238983154
  },
  {
    "iata": "YQU",
    "name": "Grande Prairie",
    "city": "Grande Prairie",
    "country": "Canada",
    "lat": 55.1796989441,
    "lon": -118.885002136
  },
  {
    "iata": "YQV",
    "name": "Yorkton",
    "city": "Yorkton",
    "country": "Canada",
    "lat": 51.2647018433,
    "lon": -102.4619979858
  },
  {
    "iata": "YQW",
    "name": "North Battleford",
    "city": "North Battleford",
    "country": "Canada",
    "lat": 52.7691993713,
    "lon": -108.2440032959
  },
  {
    "iata": "YQX",
    "name": "Gander International",
    "city": "Gander",
    "country": "Canada",
    "lat": 48.9369010925,
    "lon": -54.5680999756
  },
  {
    "iata": "YQY",
    "name": "Sydney",
    "city": "Sydney",
    "country": "Canada",
    "lat": 46.1613998413,
    "lon": -60.0477981567
  },
  {
    "iata": "YQZ",
    "name": "Quesnel",
    "city": "Quesnel",
    "country": "Canada",
    "lat": 53.0261001587,
    "lon": -122.5100021362
  },
  {
    "iata": "YRA",
    "name": "Rae Lakes",
    "city": "Rae Lakes",
    "country": "Canada",
    "lat": 64.1160964966,
    "lon": -117.3099975586
  },
  {
    "iata": "YRB",
    "name": "Resolute",
    "city": "Resolute",
    "country": "Canada",
    "lat": 74.7169036865,
    "lon": -94.9693984985
  },
  {
    "iata": "YRI",
    "name": "Riviere Du Loup",
    "city": "Riviere Du Loup",
    "country": "Canada",
    "lat": 47.7644004822,
    "lon": -69.5847015381
  },
  {
    "iata": "YRJ",
    "name": "Roberval",
    "city": "Roberval",
    "country": "Canada",
    "lat": 48.5200004578,
    "lon": -72.2656021118
  },
  {
    "iata": "YRL",
    "name": "Red Lake",
    "city": "Red Lake",
    "country": "Canada",
    "lat": 51.0668983459,
    "lon": -93.7930984497
  },
  {
    "iata": "YRM",
    "name": "Rocky Mountain House",
    "city": "Rocky Mountain House",
    "country": "Canada",
    "lat": 52.4296989441,
    "lon": -114.9039993286
  },
  {
    "iata": "YRO",
    "name": "Rockcliffe St",
    "city": "Ottawa",
    "country": "Canada",
    "lat": 45.4603004456,
    "lon": -75.6461029053
  },
  {
    "iata": "YRP",
    "name": "Ottawa / Carp Airport",
    "city": "Carp",
    "country": "Canada",
    "lat": 45.3191986084,
    "lon": -76.0222015381
  },
  {
    "iata": "YRQ",
    "name": "Trois-Rivieres",
    "city": "Trois-Rivieres",
    "country": "Canada",
    "lat": 46.3527984619,
    "lon": -72.679397583
  },
  {
    "iata": "YRS",
    "name": "Red Sucker Lake",
    "city": "Red Sucker Lake",
    "country": "Canada",
    "lat": 54.1671981812,
    "lon": -93.5571975708
  },
  {
    "iata": "YRT",
    "name": "Rankin Inlet",
    "city": "Rankin Inlet",
    "country": "Canada",
    "lat": 62.8114013672,
    "lon": -92.1157989502
  },
  {
    "iata": "YRV",
    "name": "Revelstoke",
    "city": "Revelstoke",
    "country": "Canada",
    "lat": 50.9667015076,
    "lon": -118.182998657
  },
  {
    "iata": "YSB",
    "name": "Sudbury",
    "city": "Sudbury",
    "country": "Canada",
    "lat": 46.625,
    "lon": -80.7988967896
  },
  {
    "iata": "YSC",
    "name": "Sherbrooke",
    "city": "Sherbrooke",
    "country": "Canada",
    "lat": 45.4385986328,
    "lon": -71.6913986206
  },
  {
    "iata": "YSE",
    "name": "Squamish",
    "city": "Squamish",
    "country": "Canada",
    "lat": 49.7817001343,
    "lon": -123.1620025635
  },
  {
    "iata": "YSF",
    "name": "Stony Rapids",
    "city": "Stony Rapids",
    "country": "Canada",
    "lat": 59.2503013611,
    "lon": -105.841003418
  },
  {
    "iata": "YSH",
    "name": "Smith Falls",
    "city": "Smith Falls",
    "country": "Canada",
    "lat": 44.9458007813,
    "lon": -75.9405975342
  },
  {
    "iata": "YSJ",
    "name": "Saint John",
    "city": "Saint John",
    "country": "Canada",
    "lat": 45.3161010742,
    "lon": -65.890296936
  },
  {
    "iata": "YSK",
    "name": "Sanikiluaq",
    "city": "Sanikiluaq",
    "country": "Canada",
    "lat": 56.5377998352,
    "lon": -79.2466964722
  },
  {
    "iata": "YSL",
    "name": "Edmunston",
    "city": "St Leonard",
    "country": "Canada",
    "lat": 47.1575012207,
    "lon": -67.8347015381
  },
  {
    "iata": "YSM",
    "name": "Fort Smith",
    "city": "Fort Smith",
    "country": "Canada",
    "lat": 60.0203018188,
    "lon": -111.9619979858
  },
  {
    "iata": "YCM",
    "name": "St Catharines",
    "city": "St Catharines",
    "country": "Canada",
    "lat": 43.1916999817,
    "lon": -79.1716995239
  },
  {
    "iata": "YSP",
    "name": "Marathon",
    "city": "Marathon",
    "country": "Canada",
    "lat": 48.7552986145,
    "lon": -86.3443984985
  },
  {
    "iata": "YST",
    "name": "Ste Therese Point",
    "city": "Ste Therese Point",
    "country": "Canada",
    "lat": 53.8456001282,
    "lon": -94.8518981934
  },
  {
    "iata": "YSU",
    "name": "Summerside",
    "city": "Summerside",
    "country": "Canada",
    "lat": 46.4406013489,
    "lon": -63.8335990906
  },
  {
    "iata": "YSY",
    "name": "Sachs Harbour",
    "city": "Sachs Harbour",
    "country": "Canada",
    "lat": 71.9938964844,
    "lon": -125.242996216
  },
  {
    "iata": "YTA",
    "name": "Pembroke And Area Apt",
    "city": "Pembroke",
    "country": "Canada",
    "lat": 45.8643989563,
    "lon": -77.251701355
  },
  {
    "iata": "YTE",
    "name": "Cape Dorset",
    "city": "Cape Dorset",
    "country": "Canada",
    "lat": 64.2300033569,
    "lon": -76.5267028809
  },
  {
    "iata": "YTF",
    "name": "Alma",
    "city": "Alma",
    "country": "Canada",
    "lat": 48.5088996887,
    "lon": -71.6418991089
  },
  {
    "iata": "YTH",
    "name": "Thompson",
    "city": "Thompson",
    "country": "Canada",
    "lat": 55.8011016846,
    "lon": -97.8641967773
  },
  {
    "iata": "YTL",
    "name": "Big Trout",
    "city": "Big Trout",
    "country": "Canada",
    "lat": 53.8177986145,
    "lon": -89.8968963623
  },
  {
    "iata": "YTQ",
    "name": "Tasiujuaq",
    "city": "Tasiujuaq",
    "country": "Canada",
    "lat": 58.6678009033,
    "lon": -69.9558029175
  },
  {
    "iata": "YTR",
    "name": "Trenton",
    "city": "Trenton",
    "country": "Canada",
    "lat": 44.1189002991,
    "lon": -77.5280990601
  },
  {
    "iata": "YTS",
    "name": "Timmins",
    "city": "Timmins",
    "country": "Canada",
    "lat": 48.5696983337,
    "lon": -81.376701355
  },
  {
    "iata": "YTZ",
    "name": "Toronto Island",
    "city": "Toronto",
    "country": "Canada",
    "lat": 43.6274986267,
    "lon": -79.3962020874
  },
  {
    "iata": "YUB",
    "name": "Tuktoyaktuk",
    "city": "Tuktoyaktuk",
    "country": "Canada",
    "lat": 69.4332962036,
    "lon": -133.0260009766
  },
  {
    "iata": "YUL",
    "name": "Montreal International Airport",
    "city": "Montreal",
    "country": "Canada",
    "lat": 45.4706001282,
    "lon": -73.7407989502
  },
  {
    "iata": "YUT",
    "name": "Repulse Bay",
    "city": "Repulse Bay",
    "country": "Canada",
    "lat": 66.5214004517,
    "lon": -86.2247009277
  },
  {
    "iata": "YUX",
    "name": "Hall Beach",
    "city": "Hall Beach",
    "country": "Canada",
    "lat": 68.7761001587,
    "lon": -81.243598938
  },
  {
    "iata": "YUY",
    "name": "Rouyn",
    "city": "Rouyn",
    "country": "Canada",
    "lat": 48.2061004639,
    "lon": -78.8356018066
  },
  {
    "iata": "YVB",
    "name": "Bonaventure",
    "city": "Bonaventure",
    "country": "Canada",
    "lat": 48.0710983276,
    "lon": -65.4602966309
  },
  {
    "iata": "YVC",
    "name": "La Ronge",
    "city": "La Ronge",
    "country": "Canada",
    "lat": 55.1514015198,
    "lon": -105.2620010376
  },
  {
    "iata": "YVG",
    "name": "Vermilion",
    "city": "Vermilion",
    "country": "Canada",
    "lat": 53.3558006287,
    "lon": -110.8239974976
  },
  {
    "iata": "YVE",
    "name": "Vernon",
    "city": "Vernon",
    "country": "Canada",
    "lat": 50.2481002808,
    "lon": -119.3310012817
  },
  {
    "iata": "YVM",
    "name": "Qikiqtarjuaq",
    "city": "Qikiqtarjuaq",
    "country": "Canada",
    "lat": 67.5457992554,
    "lon": -64.0314025879
  },
  {
    "iata": "YVO",
    "name": "Val-d'Or Airport",
    "city": "Val-d'Or",
    "country": "Canada",
    "lat": 48.0532989502,
    "lon": -77.7827987671
  },
  {
    "iata": "YVP",
    "name": "Kuujjuaq",
    "city": "Kuujjuaq",
    "country": "Canada",
    "lat": 58.0960998535,
    "lon": -68.426902771
  },
  {
    "iata": "YVQ",
    "name": "Norman Wells",
    "city": "Norman Wells",
    "country": "Canada",
    "lat": 65.2816009521,
    "lon": -126.797996521
  },
  {
    "iata": "YVR",
    "name": "Vancouver Intl",
    "city": "Vancouver",
    "country": "Canada",
    "lat": 49.193901062,
    "lon": -123.1839981079
  },
  {
    "iata": "YVT",
    "name": "Buffalo Narrows",
    "city": "Buffalo Narrows",
    "country": "Canada",
    "lat": 55.8418998718,
    "lon": -108.417999268
  },
  {
    "iata": "YVV",
    "name": "Wiarton",
    "city": "Wiarton",
    "country": "Canada",
    "lat": 44.7458000183,
    "lon": -81.1072006226
  },
  {
    "iata": "YVZ",
    "name": "Deer Lake",
    "city": "Deer Lake",
    "country": "Canada",
    "lat": 52.6557998657,
    "lon": -94.0614013672
  },
  {
    "iata": "YWA",
    "name": "Petawawa",
    "city": "Petawawa",
    "country": "Canada",
    "lat": 45.9522018433,
    "lon": -77.3191986084
  },
  {
    "iata": "YFJ",
    "name": "Snare Lake",
    "city": "Snare Lake",
    "country": "Canada",
    "lat": 64.1908035278,
    "lon": -114.077003479
  },
  {
    "iata": "YWG",
    "name": "Winnipeg",
    "city": "Winnipeg",
    "country": "Canada",
    "lat": 49.9099998474,
    "lon": -97.2398986816
  },
  {
    "iata": "YWH",
    "name": "Victoria Inner Harbor",
    "city": "Victoria",
    "country": "Canada",
    "lat": 48.422833,
    "lon": -123.3875
  },
  {
    "iata": "YWJ",
    "name": "Deline",
    "city": "Deline",
    "country": "Canada",
    "lat": 65.2110977173,
    "lon": -123.4359970093
  },
  {
    "iata": "YWK",
    "name": "Wabush",
    "city": "Wabush",
    "country": "Canada",
    "lat": 52.9219017029,
    "lon": -66.864402771
  },
  {
    "iata": "YWL",
    "name": "Williams Lake",
    "city": "Williams Lake",
    "country": "Canada",
    "lat": 52.1831016541,
    "lon": -122.0540008545
  },
  {
    "iata": "YWP",
    "name": "Webequie",
    "city": "Webequie",
    "country": "Canada",
    "lat": 52.9593933975,
    "lon": -87.3748683929
  },
  {
    "iata": "YWY",
    "name": "Wrigley",
    "city": "Wrigley",
    "country": "Canada",
    "lat": 63.209400177,
    "lon": -123.43699646
  },
  {
    "iata": "YXC",
    "name": "Cranbrook",
    "city": "Cranbrook",
    "country": "Canada",
    "lat": 49.6108016968,
    "lon": -115.7819976807
  },
  {
    "iata": "YXD",
    "name": "Edmonton City Center",
    "city": "Edmonton",
    "country": "Canada",
    "lat": 53.5724983215,
    "lon": -113.521003723
  },
  {
    "iata": "YXE",
    "name": "J.G. Diefenbaker International Airport",
    "city": "Saskatoon",
    "country": "Canada",
    "lat": 52.1707992554,
    "lon": -106.6999969482
  },
  {
    "iata": "YXH",
    "name": "Medicine Hat",
    "city": "Medicine Hat",
    "country": "Canada",
    "lat": 50.018901825,
    "lon": -110.7210006714
  },
  {
    "iata": "YXJ",
    "name": "Fort St John",
    "city": "Fort St John",
    "country": "Canada",
    "lat": 56.2380981445,
    "lon": -120.7399978638
  },
  {
    "iata": "YXK",
    "name": "Rimouski",
    "city": "Rimouski",
    "country": "Canada",
    "lat": 48.478099823,
    "lon": -68.4969024658
  },
  {
    "iata": "YXL",
    "name": "Sioux Lookout",
    "city": "Sioux Lookout",
    "country": "Canada",
    "lat": 50.113899231,
    "lon": -91.9052963257
  },
  {
    "iata": "YXN",
    "name": "Whale Cove",
    "city": "Whale Cove",
    "country": "Canada",
    "lat": 62.2400016785,
    "lon": -92.5980987549
  },
  {
    "iata": "YXP",
    "name": "Pangnirtung",
    "city": "Pangnirtung",
    "country": "Canada",
    "lat": 66.1449966431,
    "lon": -65.7136001587
  },
  {
    "iata": "YXQ",
    "name": "Beaver Creek",
    "city": "Beaver Creek",
    "country": "Canada",
    "lat": 62.4103012085,
    "lon": -140.8670043945
  },
  {
    "iata": "YXR",
    "name": "Earlton",
    "city": "Earlton",
    "country": "Canada",
    "lat": 47.6974006546,
    "lon": -79.8473453522
  },
  {
    "iata": "YXS",
    "name": "Prince George",
    "city": "Prince George",
    "country": "Canada",
    "lat": 53.8894004822,
    "lon": -122.6790008545
  },
  {
    "iata": "YXT",
    "name": "Terrace",
    "city": "Terrace",
    "country": "Canada",
    "lat": 54.46849823,
    "lon": -128.5760040283
  },
  {
    "iata": "YXU",
    "name": "London International Airport",
    "city": "London",
    "country": "Canada",
    "lat": 43.0355987549,
    "lon": -81.1539001465
  },
  {
    "iata": "YXX",
    "name": "Abbotsford",
    "city": "Abbotsford",
    "country": "Canada",
    "lat": 49.0252990723,
    "lon": -122.361000061
  },
  {
    "iata": "YXY",
    "name": "Whitehorse",
    "city": "Whitehorse",
    "country": "Canada",
    "lat": 60.7095985413,
    "lon": -135.067001343
  },
  {
    "iata": "YXZ",
    "name": "Wawa",
    "city": "Wawa",
    "country": "Canada",
    "lat": 47.9667015076,
    "lon": -84.7866973877
  },
  {
    "iata": "YYB",
    "name": "North Bay",
    "city": "North Bay",
    "country": "Canada",
    "lat": 46.3636016846,
    "lon": -79.4227981567
  },
  {
    "iata": "YYC",
    "name": "Calgary International Airport",
    "city": "Calgary",
    "country": "Canada",
    "lat": 51.113899231,
    "lon": -114.0199966431
  },
  {
    "iata": "YYD",
    "name": "Smithers",
    "city": "Smithers",
    "country": "Canada",
    "lat": 54.8246994019,
    "lon": -127.1829986572
  },
  {
    "iata": "YYE",
    "name": "Fort Nelson",
    "city": "Fort Nelson",
    "country": "Canada",
    "lat": 58.8363990784,
    "lon": -122.5970001221
  },
  {
    "iata": "YYF",
    "name": "Penticton",
    "city": "Penticton",
    "country": "Canada",
    "lat": 49.4631004333,
    "lon": -119.6019973755
  },
  {
    "iata": "YYG",
    "name": "Charlottetown",
    "city": "Charlottetown",
    "country": "Canada",
    "lat": 46.2900009155,
    "lon": -63.1211013794
  },
  {
    "iata": "YYH",
    "name": "Taloyoak",
    "city": "Taloyoak",
    "country": "Canada",
    "lat": 69.5466995239,
    "lon": -93.5766983032
  },
  {
    "iata": "YYJ",
    "name": "Victoria International",
    "city": "Victoria",
    "country": "Canada",
    "lat": 48.646900177,
    "lon": -123.4260025024
  },
  {
    "iata": "YYL",
    "name": "Lynn Lake",
    "city": "Lynn Lake",
    "country": "Canada",
    "lat": 56.863899231,
    "lon": -101.0759963989
  },
  {
    "iata": "YYM",
    "name": "Cowley",
    "city": "Cowley",
    "country": "Canada",
    "lat": 49.6363983154,
    "lon": -114.09400177
  },
  {
    "iata": "YYN",
    "name": "Swift Current",
    "city": "Swift Current",
    "country": "Canada",
    "lat": 50.2919006348,
    "lon": -107.691001892
  },
  {
    "iata": "YYQ",
    "name": "Churchill Airport",
    "city": "Churchill",
    "country": "Canada",
    "lat": 58.739200592,
    "lon": -94.0650024414
  },
  {
    "iata": "YYR",
    "name": "Goose Bay",
    "city": "Goose Bay",
    "country": "Canada",
    "lat": 53.3191986084,
    "lon": -60.4258003235
  },
  {
    "iata": "YYT",
    "name": "St. John´s International Airport",
    "city": "St. John's",
    "country": "Canada",
    "lat": 47.618598938,
    "lon": -52.7518997192
  },
  {
    "iata": "YYU",
    "name": "Kapuskasing",
    "city": "Kapuskasing",
    "country": "Canada",
    "lat": 49.413898468,
    "lon": -82.4674987793
  },
  {
    "iata": "YYW",
    "name": "Armstrong",
    "city": "Armstrong",
    "country": "Canada",
    "lat": 50.2902984619,
    "lon": -88.9096984863
  },
  {
    "iata": "YYY",
    "name": "Mont Joli",
    "city": "Mont Joli",
    "country": "Canada",
    "lat": 48.6086006165,
    "lon": -68.2080993652
  },
  {
    "iata": "YYZ",
    "name": "Toronto/Lester B. Pearson International",
    "city": "Toronto",
    "country": "Canada",
    "lat": 43.6772003174,
    "lon": -79.6305999756
  },
  {
    "iata": "YZD",
    "name": "Downsview Airport",
    "city": "Toronto",
    "country": "Canada",
    "lat": 43.7425003052,
    "lon": -79.4655990601
  },
  {
    "iata": "YZE",
    "name": "Gore Bay",
    "city": "Gore Bay",
    "country": "Canada",
    "lat": 45.8852996826,
    "lon": -82.5678024292
  },
  {
    "iata": "YZF",
    "name": "Yellowknife",
    "city": "Yellowknife",
    "country": "Canada",
    "lat": 62.4627990723,
    "lon": -114.4400024414
  },
  {
    "iata": "YZG",
    "name": "Salluit",
    "city": "Salluit",
    "country": "Canada",
    "lat": 62.1794013977,
    "lon": -75.6671981812
  },
  {
    "iata": "YZH",
    "name": "Slave Lake",
    "city": "Slave Lake",
    "country": "Canada",
    "lat": 55.2930984497,
    "lon": -114.777000427
  },
  {
    "iata": "YZP",
    "name": "Sandspit",
    "city": "Sandspit",
    "country": "Canada",
    "lat": 53.2542991638,
    "lon": -131.813995361
  },
  {
    "iata": "YZR",
    "name": "Sarnia",
    "city": "Sarnia",
    "country": "Canada",
    "lat": 42.9994010925,
    "lon": -82.3088989258
  },
  {
    "iata": "YZS",
    "name": "Coral Harbour",
    "city": "Coral Harbour",
    "country": "Canada",
    "lat": 64.1932983398,
    "lon": -83.3593978882
  },
  {
    "iata": "YZT",
    "name": "Port Hardy",
    "city": "Port Hardy",
    "country": "Canada",
    "lat": 50.6805992126,
    "lon": -127.3669967651
  },
  {
    "iata": "YZU",
    "name": "Whitecourt",
    "city": "Whitecourt",
    "country": "Canada",
    "lat": 54.143901825,
    "lon": -115.7870025635
  },
  {
    "iata": "YZV",
    "name": "Sept-Iles",
    "city": "Sept-Iles",
    "country": "Canada",
    "lat": 50.2233009338,
    "lon": -66.2656021118
  },
  {
    "iata": "YZW",
    "name": "Teslin",
    "city": "Teslin",
    "country": "Canada",
    "lat": 60.1727981567,
    "lon": -132.7429962158
  },
  {
    "iata": "YZX",
    "name": "Greenwood",
    "city": "Greenwood",
    "country": "Canada",
    "lat": 44.9844017029,
    "lon": -64.9169006348
  },
  {
    "iata": "YZY",
    "name": "Mackenzie Airport",
    "city": "Mackenzie",
    "country": "Canada",
    "lat": 55.3044013977,
    "lon": -123.132003784
  },
  {
    "iata": "ZAC",
    "name": "York Landing",
    "city": "York Landing",
    "country": "Canada",
    "lat": 56.0894012451,
    "lon": -96.0892028809
  },
  {
    "iata": "YSN",
    "name": "Salmon Arm",
    "city": "Salmon Arm",
    "country": "Canada",
    "lat": 50.682800293,
    "lon": -119.2289962769
  },
  {
    "iata": "YDT",
    "name": "Boundary Bay",
    "city": "Vancouver",
    "country": "Canada",
    "lat": 43.4414531515,
    "lon": -79.850102663
  },
  {
    "iata": "ZBD",
    "name": "Jiang Men Ferry",
    "city": "Jiang Men",
    "country": "China",
    "lat": 49.0741996765,
    "lon": -123.012001038
  },
  {
    "iata": "ILF",
    "name": "Ilford",
    "city": "Ilford",
    "country": "Canada",
    "lat": 56.0614013672,
    "lon": -95.613899231
  },
  {
    "iata": "ZBF",
    "name": "Bathurst",
    "city": "Bathurst",
    "country": "Canada",
    "lat": 47.629699707,
    "lon": -65.738899231
  },
  {
    "iata": "ZBM",
    "name": "Bromont",
    "city": "Bromont",
    "country": "Canada",
    "lat": 45.2907981873,
    "lon": -72.7414016724
  },
  {
    "iata": "ZEE",
    "name": "Kelsey Airport",
    "city": "Kelsey",
    "country": "Canada",
    "lat": 56.0374984741,
    "lon": -96.5096969604
  },
  {
    "iata": "ZEM",
    "name": "East Main",
    "city": "East Main",
    "country": "Canada",
    "lat": 52.226398468,
    "lon": -78.5224990845
  },
  {
    "iata": "ZFA",
    "name": "Faro",
    "city": "Faro",
    "country": "Canada",
    "lat": 62.2075004578,
    "lon": -133.3760070801
  },
  {
    "iata": "ZFD",
    "name": "Fond Du Lac",
    "city": "Fond Du Lac",
    "country": "Canada",
    "lat": 59.334400177,
    "lon": -107.1819992065
  },
  {
    "iata": "ZFG",
    "name": "Pukatawagan Airport",
    "city": "Pukatawagan",
    "country": "Canada",
    "lat": 55.7491989136,
    "lon": -101.2659988403
  },
  {
    "iata": "ZFM",
    "name": "Fort Mcpherson",
    "city": "Fort Mcpherson",
    "country": "Canada",
    "lat": 67.4075012207,
    "lon": -134.8609924316
  },
  {
    "iata": "ZFN",
    "name": "Tulita",
    "city": "Tulita/Fort Norman",
    "country": "Canada",
    "lat": 64.9096984863,
    "lon": -125.5729980469
  },
  {
    "iata": "ZGF",
    "name": "Grand Forks",
    "city": "Grand Forks",
    "country": "Canada",
    "lat": 49.0155982971,
    "lon": -118.4309997559
  },
  {
    "iata": "ZGI",
    "name": "Gods River",
    "city": "Gods River",
    "country": "Canada",
    "lat": 54.8396987915,
    "lon": -94.0785980225
  },
  {
    "iata": "ZGR",
    "name": "Little Grand Rapids",
    "city": "Little Grand Rapids",
    "country": "Canada",
    "lat": 52.0456008911,
    "lon": -95.4657974243
  },
  {
    "iata": "ZHP",
    "name": "High Prairie",
    "city": "High Prairie",
    "country": "Canada",
    "lat": 55.3936004639,
    "lon": -116.4749984741
  },
  {
    "iata": "ZJG",
    "name": "Jenpeg",
    "city": "Jenpeg",
    "country": "Canada",
    "lat": 54.518901825,
    "lon": -98.0460968018
  },
  {
    "iata": "ZJN",
    "name": "Swan River",
    "city": "Swan River",
    "country": "Canada",
    "lat": 52.1206016541,
    "lon": -101.236000061
  },
  {
    "iata": "ZKE",
    "name": "Kaschechewan",
    "city": "Kaschechewan",
    "country": "Canada",
    "lat": 52.2825012207,
    "lon": -81.6778030396
  },
  {
    "iata": "YTD",
    "name": "Thicket Portage",
    "city": "Thicket Portage",
    "country": "Canada",
    "lat": 55.318901062,
    "lon": -97.7078018188
  },
  {
    "iata": "MSA",
    "name": "Muskrat Dam",
    "city": "Muskrat Dam",
    "country": "Canada",
    "lat": 53.4413986206,
    "lon": -91.762802124
  },
  {
    "iata": "ZMH",
    "name": "108 Mile Ranch",
    "city": "108 Mile Ranch",
    "country": "Canada",
    "lat": 51.7360992432,
    "lon": -121.333000183
  },
  {
    "iata": "PIW",
    "name": "Pikwitonei",
    "city": "Pikwitonei",
    "country": "Canada",
    "lat": 55.5889015198,
    "lon": -97.1641998291
  },
  {
    "iata": "ZMT",
    "name": "Masset",
    "city": "Masset",
    "country": "Canada",
    "lat": 54.0275001526,
    "lon": -132.125
  },
  {
    "iata": "ZNG",
    "name": "Negginan",
    "city": "Negginan",
    "country": "Canada",
    "lat": 53,
    "lon": -97.2667007446
  },
  {
    "iata": "ZPB",
    "name": "Sachigo Lake",
    "city": "Sachigo Lake",
    "country": "Canada",
    "lat": 53.8911018372,
    "lon": -92.1964035034
  },
  {
    "iata": "WPC",
    "name": "Pincher Creek",
    "city": "Pincher Creek",
    "country": "Canada",
    "lat": 49.5205993652,
    "lon": -113.9970016479
  },
  {
    "iata": "ZPO",
    "name": "Pine House",
    "city": "Pine House",
    "country": "Canada",
    "lat": 55.5280990601,
    "lon": -106.582000732
  },
  {
    "iata": "ZRJ",
    "name": "Round Lake",
    "city": "Round Lake",
    "country": "Canada",
    "lat": 52.9435997009,
    "lon": -91.3127975464
  },
  {
    "iata": "ZSJ",
    "name": "Sandy Lake",
    "city": "Sandy Lake",
    "country": "Canada",
    "lat": 53.064201355,
    "lon": -93.3443984985
  },
  {
    "iata": "XSI",
    "name": "South Indian Lake",
    "city": "South Indian Lake",
    "country": "Canada",
    "lat": 56.7928009033,
    "lon": -98.9072036743
  },
  {
    "iata": "ZST",
    "name": "Stewart",
    "city": "Stewart",
    "country": "Canada",
    "lat": 55.935410448,
    "lon": -129.982434511
  },
  {
    "iata": "YDV",
    "name": "Bloodvein",
    "city": "Bloodvein",
    "country": "Canada",
    "lat": 51.7832984924,
    "lon": -96.6999969482
  },
  {
    "iata": "ZTM",
    "name": "Shamattawa",
    "city": "Shamattawa",
    "country": "Canada",
    "lat": 55.8656005859,
    "lon": -92.0813980103
  },
  {
    "iata": "ZUC",
    "name": "Ignace",
    "city": "Ignace",
    "country": "Canada",
    "lat": 49.4296989441,
    "lon": -91.7177963257
  },
  {
    "iata": "ZUM",
    "name": "Churchill Falls",
    "city": "Churchill Falls",
    "country": "Canada",
    "lat": 53.5619010925,
    "lon": -64.1063995361
  },
  {
    "iata": "ZWH",
    "name": "Railway Station",
    "city": "Windhoek",
    "country": "Namibia",
    "lat": 58.6175003052,
    "lon": -101.46900177
  },
  {
    "iata": "ZWL",
    "name": "Wollaston Lake",
    "city": "Wollaston Lake",
    "country": "Canada",
    "lat": 58.1068992615,
    "lon": -103.1719970703
  },
  {
    "iata": "QLD",
    "name": "Blida Airport",
    "city": "Blida Airport",
    "country": "Algeria",
    "lat": 36.5036010742,
    "lon": 2.8141698837
  },
  {
    "iata": "BUJ",
    "name": "Ain Eddis",
    "city": "Boussaada",
    "country": "Algeria",
    "lat": 35.3325004578,
    "lon": 4.206389904
  },
  {
    "iata": "BJA",
    "name": "Bejaia",
    "city": "Bejaia",
    "country": "Algeria",
    "lat": 36.7120018005,
    "lon": 5.069920063
  },
  {
    "iata": "ALG",
    "name": "Houari Boumediene",
    "city": "Algiers",
    "country": "Algeria",
    "lat": 36.6910018921,
    "lon": 3.2154099941
  },
  {
    "iata": "DJG",
    "name": "Inedbirenne",
    "city": "Djanet",
    "country": "Algeria",
    "lat": 24.2928009033,
    "lon": 9.4524402618
  },
  {
    "iata": "QFD",
    "name": "Boufarik Airport",
    "city": "Boufarik Airport",
    "country": "Algeria",
    "lat": 36.5457992554,
    "lon": 2.8761100769
  },
  {
    "iata": "VVZ",
    "name": "Illizi",
    "city": "Illizi",
    "country": "Algeria",
    "lat": 26.7234992981,
    "lon": 8.6226501465
  },
  {
    "iata": "QSF",
    "name": "Setif",
    "city": "Setif",
    "country": "Algeria",
    "lat": 36.1781005859,
    "lon": 5.3244900703
  },
  {
    "iata": "TMR",
    "name": "Aguemar",
    "city": "Tamanrasset",
    "country": "Algeria",
    "lat": 22.8115005493,
    "lon": 5.4510798454
  },
  {
    "iata": "GJL",
    "name": "Jijel",
    "city": "Jijel",
    "country": "Algeria",
    "lat": 36.7951011658,
    "lon": 5.8736100197
  },
  {
    "iata": "MZW",
    "name": "Mechria",
    "city": "Mechria",
    "country": "Algeria",
    "lat": 33.535900116,
    "lon": -0.2423530072
  },
  {
    "iata": "QZN",
    "name": "Relizane Airport",
    "city": "Relizane Airport",
    "country": "Algeria",
    "lat": 35.7522010803,
    "lon": 0.6262720227
  },
  {
    "iata": "AAE",
    "name": "Les Salines",
    "city": "Annaba",
    "country": "Algeria",
    "lat": 36.8222007751,
    "lon": 7.8091697693
  },
  {
    "iata": "CZL",
    "name": "Ain El Bey",
    "city": "Constantine",
    "country": "Algeria",
    "lat": 36.2760009766,
    "lon": 6.6203899384
  },
  {
    "iata": "TEE",
    "name": "Tbessa",
    "city": "Tbessa",
    "country": "Algeria",
    "lat": 35.4315986633,
    "lon": 8.1207199097
  },
  {
    "iata": "BLJ",
    "name": "Batna",
    "city": "Batna",
    "country": "Algeria",
    "lat": 35.7521018982,
    "lon": 6.3085899353
  },
  {
    "iata": "HRM",
    "name": "Hassi R'Mel Airport",
    "city": "Hassi R'Mel Airport",
    "country": "Algeria",
    "lat": 32.9304008484,
    "lon": 3.3115398884
  },
  {
    "iata": "QDJ",
    "name": "Tsletsi Airport",
    "city": "Tsletsi Airport",
    "country": "Algeria",
    "lat": 34.6657,
    "lon": 3.351
  },
  {
    "iata": "TID",
    "name": "Bouchekif",
    "city": "Tiaret",
    "country": "Algeria",
    "lat": 35.3410987854,
    "lon": 1.4631500244
  },
  {
    "iata": "TIN",
    "name": "Tindouf",
    "city": "Tindouf",
    "country": "Algeria",
    "lat": 27.7003993988,
    "lon": -8.1670999527
  },
  {
    "iata": "CFK",
    "name": "Abou Bakr Belkaid",
    "city": "Chlef",
    "country": "Algeria",
    "lat": 36.216828,
    "lon": 1.340739
  },
  {
    "iata": "TAF",
    "name": "Tafaraoui",
    "city": "Oran",
    "country": "Algeria",
    "lat": 35.5424003601,
    "lon": -0.5322780013
  },
  {
    "iata": "TLM",
    "name": "Zenata",
    "city": "Tlemcen",
    "country": "Algeria",
    "lat": 35.0167007446,
    "lon": -1.4500000477
  },
  {
    "iata": "ORN",
    "name": "Es Senia",
    "city": "Oran",
    "country": "Algeria",
    "lat": 35.6239013672,
    "lon": -0.6211829782
  },
  {
    "iata": "CBH",
    "name": "Leger",
    "city": "Bechar",
    "country": "Algeria",
    "lat": 31.6457004547,
    "lon": -2.2698600292
  },
  {
    "iata": "BFW",
    "name": "Sidi Belabbes",
    "city": "Sidi Belabbes",
    "country": "Algeria",
    "lat": 35.1717987061,
    "lon": -0.5932750106
  },
  {
    "iata": "MUW",
    "name": "Mascara",
    "city": "Mascara",
    "country": "Algeria",
    "lat": 35.207698822,
    "lon": 0.147141993
  },
  {
    "iata": "EBH",
    "name": "El Bayadh Airport",
    "city": "El Bayadh",
    "country": "Algeria",
    "lat": 33.7216666667,
    "lon": 1.0925
  },
  {
    "iata": "INF",
    "name": "In Guezzam",
    "city": "In Guezzam",
    "country": "Algeria",
    "lat": 19.5669994354,
    "lon": 5.75
  },
  {
    "iata": "BMW",
    "name": "Bordj Badji Mokhtar",
    "city": "Bordj Badji Mokhtar",
    "country": "Algeria",
    "lat": 21.375,
    "lon": 0.9238889813
  },
  {
    "iata": "AZR",
    "name": "Adrar",
    "city": "Adrar",
    "country": "Algeria",
    "lat": 27.837600708,
    "lon": -0.1864140034
  },
  {
    "iata": "BSK",
    "name": "Biskra",
    "city": "Biskra",
    "country": "Algeria",
    "lat": 34.7933006287,
    "lon": 5.7382302284
  },
  {
    "iata": "ELG",
    "name": "El Golea",
    "city": "El Golea",
    "country": "Algeria",
    "lat": 30.5713005066,
    "lon": 2.8595900536
  },
  {
    "iata": "GHA",
    "name": "Noumerate",
    "city": "Ghardaia",
    "country": "Algeria",
    "lat": 32.3841018677,
    "lon": 3.7941100597
  },
  {
    "iata": "HME",
    "name": "Oued Irara Apt",
    "city": "Hassi Messaoud",
    "country": "Algeria",
    "lat": 31.6730003357,
    "lon": 6.1404399872
  },